ident,type,name,latitude_deg,longitude_deg,elevation_ft,continent,iso_country,iso_region,municipality,scheduled_service,gps_code,iata_code,local_code
03N,small_airport,Utirik Airport,11.222,169.852005,4,OC,MH,MH-UTI,Utirik Island,yes,K03N,UTK,03N
07FA,small_airport,Ocean Reef Club Airport,25.3253994,-80.27480316,8,NA,US,US-FL,Key Largo,no,07FA,OCA,07FA
0AK,small_airport,Pilot Station Airport,61.934601,-162.899994,305,NA,US,US-AK,Pilot Station,yes,,PQS,0AK
0CO2,small_airport,Crested Butte Airpark,38.851918,-106.928341,8980,NA,US,US-CO,Crested Butte,no,0CO2,CSE,0CO2
0TE7,small_airport,LBJ Ranch Airport,30.25180054,-98.62249756,1515,NA,US,US-TX,Johnson City,no,0TE7,JCY,0TE7
13Z,seaplane_base,Loring Seaplane Base,55.60129929,-131.6369934,0,NA,US,US-AK,Loring,no,13Z,WLR,13Z
16A,small_airport,Nunapitchuk Airport,60.905591,-162.440454,12,NA,US,US-AK,Nunapitchuk,yes,PPIT,NUP,16A
16K,seaplane_base,Port Alice Seaplane Base,55.803,-133.597,0,NA,US,US-AK,Port Alice,no,16K,PTC,16K
19AK,small_airport,Icy Bay Airport,59.966269,-141.660118,50,NA,US,US-AK,Icy Bay,no,19AK,ICY,19AK
19P,seaplane_base,Port Protection Seaplane Base,56.3288002,-133.6100006,0,NA,US,US-AK,Port Protection,yes,19P,PPV,19P
1KC,small_airport,Kalakaket Creek AS Airport,64.4166257,-156.8203926,1598,NA,US,US-AK,Kalakaket Creek,no,1KC,KKK,1KC
1O6,small_airport,Dunsmuir Muni-Mott Airport,41.263199,-122.272003,3258,NA,US,US-CA,Dunsmuir,no,KMHS,MHS,1O6
1XA2,small_airport,Chase Field Industrial Airport,28.362444,-97.661917,190,NA,US,US-TX,Beeville,no,,NIR,TX2
1Z1,small_airport,Grand Canyon Bar Ten Airstrip,36.258614,-113.231159,4100,NA,US,US-AZ,Littlefield,no,,GCT,1Z1
1Z9,seaplane_base,Ellamar Seaplane Base,60.893818,-146.704038,0,NA,US,US-AK,Ellamar,no,,ELW,1Z9
2AK,small_airport,Lime Village Airport,61.35910034,-155.4400024,552,NA,US,US-AK,Lime Village,no,2AK,LVD,2AK
2AK6,small_airport,Hog River Airport,66.2161026,-155.6690063,534,NA,US,US-AK,Hogatza,no,2AK6,HGZ,2AK6
2IG4,small_airport,Ed-Air Airport,38.85139847,-87.49970245,426,NA,US,US-IN,Oaktown,no,I20,OTN,I20
2K5,small_airport,Telida Airport,63.39390182,-153.2689972,650,NA,US,US-AK,Telida,no,2K5,TLF,2K5
2TE0,small_airport,Eagle Air Park,28.98220062,-95.57969666,15,NA,US,US-TX,Brazoria,no,2TE0,BZT,2TE0
2Z1,seaplane_base,Entrance Island Seaplane Base,57.412201,-133.43848,0,NA,US,US-AK,Entrance Island,no,,HBH,
2Z6,seaplane_base,False Island Seaplane Base,57.53219986,-135.2129974,,NA,US,US-AK,False Island,no,2Z6,FAK,2Z6
38WA,small_airport,Blakely Island Airport,48.57899857,-122.8259964,66,NA,US,US-WA,Blakely Island,no,38WA,BYW,38WA
3AK5,small_airport,Drift River Airport,60.58890152,-152.1620026,30,NA,US,US-AK,Kenai,no,3AK5,DRF,3AK5
3IS8,small_airport,Rinkenberger Restricted Landing Area,41.23089981,-89.61569977,808,NA,US,US-IL,Bradford,no,3IS8,BDF,3IS8
3VS,small_airport,Roy Otten Memorial Airfield,38.42779922,-92.87519836,1030,NA,US,US-MO,Versailles,no,3VS,VRS,3VS
3Z8,seaplane_base,Golden Horn Lodge Seaplane Base,59.74700165,-158.875,91,NA,US,US-AK,Golden Horn Lodge,no,3Z8,GDH,3Z8
4A2,small_airport,Atmautluak Airport,60.866699,-162.272996,17,NA,US,US-AK,Atmautluak,yes,,ATT,4A2
4AK,small_airport,Livengood Camp Airport,65.467,-148.6534,425,NA,US,US-AK,Livengood,no,4AK,LIV,4AK
4K0,small_airport,Pedro Bay Airport,59.78960037,-154.1239929,45,NA,US,US-AK,Pedro Bay,no,4K0,PDB,4K0
4K5,small_airport,Ouzinkie Airport,57.925362,-152.496715,55,NA,US,US-AK,Ouzinkie,yes,,KOZ,4K5
4KA,small_airport,Tununak Airport,60.57550049,-165.2720032,14,NA,US,US-AK,Tununak,no,4KA,TNK,4KA
4Z7,seaplane_base,Hyder Seaplane Base,55.903324,-130.009975,,NA,US,US-AK,Hyder,yes,,WHD,4Z7
51Z,small_airport,Minto Al Wright Airport,65.1437,-149.369995,460,NA,US,US-AK,Minto,no,,MNT,51Z
57A,seaplane_base,Tokeen Seaplane Base,55.93709946,-133.3269959,,NA,US,US-AK,Tokeen,no,57A,TKI,57A
5A8,medium_airport,Aleknagik / New Airport,59.2826004,-158.6179962,66,NA,US,US-AK,Aleknagik,yes,5A8,WKK,5A8
5KE,seaplane_base,Ketchikan Harbor Seaplane Base,55.349899,-131.677002,,NA,US,US-AK,Ketchikan,yes,,WFB,5KE
5NK,small_airport,Naknek Airport,58.735633,-157.02216,70,NA,US,US-AK,Naknek,no,,NNK,5NK
5Z9,seaplane_base,Lake Brooks Seaplane Base,58.55479813,-155.7769928,36,NA,US,US-AK,Katmai National Park,no,5Z9,BKF,5Z9
65LA,small_airport,Southern Seaplane Airport,29.866078,-90.021608,,NA,US,US-LA,Belle Chasse,no,65LA,BCS,65LA
6N7,seaplane_base,New York Skyports Inc Seaplane Base,40.735061,-73.972814,,NA,US,US-NY,New York,yes,,QNY,6N7
6OK6,small_airport,Earl Henry Airport,36.79589844,-97.31700134,1054,NA,US,US-OK,Blackwell,no,6OK6,BWL,6OK6
78K,seaplane_base,Yes Bay Lodge Seaplane Base,55.91630173,-131.8009949,,NA,US,US-AK,Yes Bay,no,78K,WYB,78K
78WA,small_airport,Center Island Airport,48.49010086,-122.8320007,115,NA,US,US-WA,Center Island,no,78WA,CWS,78WA
7KA,small_airport,Tatitlek Airport,60.871449,-146.690297,62,NA,US,US-AK,Tatitlek,yes,PAKA,TEK,7KA
7NC2,small_airport,Pine Island Airport,36.25350189,-75.78849792,16,NA,US,US-NC,Corolla,no,7NC2,DUF,7NC2
7WA5,small_airport,Stuart Island Airpark,48.673379,-123.175439,10,NA,US,US-WA,Friday Harbor,no,7WA5,SSW,7WA5
82CL,small_airport,Fort Bragg Airport,39.47430038,-123.7959976,71,NA,US,US-CA,Fort Bragg,no,82CL,FOB,82CL
83Q,seaplane_base,Port of Poulsbo Marina Moorage Seaplane Base,47.73400116,-122.6470032,0,NA,US,US-WA,Poulsbo,no,83Q,PUL,83Q
84K,seaplane_base,Meyers Chuck Seaplane Base,55.73960114,-132.2550049,0,NA,US,US-AK,Meyers Chuck,no,84K,WMK,84K
89NY,small_airport,Maxson Airfield,44.312002,-75.90034,340,NA,US,US-NY,Alexandria Bay,no,89NY,AXB,89NY
8XS8,small_airport,Reese Airpark,33.59030151,-102.0370026,3338,NA,US,US-TX,Lubbock,no,8XS8,REE,8XS8
90WA,small_airport,Waldron Airstrip,48.7118,-123.017998,140,NA,US,US-WA,Eastsound,no,90WA,WDN,90WA
96Z,seaplane_base,Whale Pass Seaplane Float Harbor Facility,56.116299,-133.121994,0,NA,US,US-AK,Whale Pass,no,,WWP,96Z
9A3,small_airport,Chuathbaluk Airport,61.579102,-159.216003,244,NA,US,US-AK,Chuathbaluk,yes,PACH,CHU,9A3
9A8,small_airport,Ugashik Airport,57.523476,-157.396344,25,NA,US,US-AK,Ugashik,no,,UGS,9A8
9N2,seaplane_base,Philadelphia Seaplane Base,39.85900116,-75.29959869,0,NA,US,US-PA,Essington,no,9N2,PSQ,9N2
9Z8,small_airport,Levelock Airport,59.12606,-156.860906,39,NA,US,US-AK,Levelock,yes,,KLL,9Z8
A23,seaplane_base,Saginaw Seaplane Base,56.88629913,-134.1580048,0,NA,US,US-AK,Saginaw Bay,no,A23,SGW,A23
A61,small_airport,Tuntutuliak Airport,60.33530045,-162.6670074,16,NA,US,US-AK,Tuntutuliak,no,A61,WTL,A61
A63,small_airport,Twin Hills Airport,59.07559967,-160.272995,82,NA,US,US-AK,Twin Hills,no,A63,TWA,A63
A79,small_airport,Chignik Lake Airport,56.25500107,-158.7749939,50,NA,US,US-AK,Chignik Lake,yes,A79,KCQ,A79
AAD,small_airport,Adado Airport,6.095802,46.6375,1001,AF,SO,SO-GA,Adado,no,,AAD,
ABP,small_airport,Atkamba Airport,-6.06462,141.095173,150,OC,PG,PG-WPD,Atkamba Mission,no,,ABP,AKA
ADC,small_airport,Andakombe Airport,-7.137222222,145.7447222,3600,OC,PG,PG-EHG,Andekombe,no,AYAN,ADC,ADK
ADV,small_airport,El Daein Airport,11.4023,26.1186,1560,AF,SD,SD-DE,El Daein,no,,ADV,
AE-0006,seaplane_base,Jebel Ali Seaplane Base,24.988967,55.023796,0,AS,AE,AE-DU,Jebel Ali,no,,DJH,
AEE,small_airport,Adareil Airport,10.05361111,32.95944444,1301,AF,SS,SS-23,,no,,AEE,
AEK,small_airport,Aseki Airport,-7.350804856,146.1938667,4106,OC,PG,PG-MPL,Aseki,no,AYAX,AEK,ASE
AEQ,small_airport,Ar Horqin Airport,43.87042,120.15958,1335,AS,CN,CN-15,Chifeng,no,,AEQ,
AF-0005,medium_airport,Khost International Airport,33.284605,69.80734,4204,AS,AF,AF-KHO,Khost,no,OAKS,KHT,
AF10,small_airport,Orūzgān Airport,32.90299988,66.63089752,6725,AS,AF,AF-ORU,Orūzgān,no,OARG,URZ,
AF11,small_airport,Salerno Airport,33.3638,69.9561,3780,AS,AF,AF-KHO,Khost,no,OASL,OLR,
AFK,seaplane_base,Kondavattavana Tank Seaplane Base,7.284,81.644,95,AS,LK,LK-5,Ampara,no,,AFK,
AFR,small_airport,Afore Airstrip,-9.142222222,148.3908333,2500,OC,PG,PG-NPP,,no,AYAF,AFR,AFE
AGAF,small_airport,Afutara Aerodrome,-9.191388889,160.9486111,23,OC,SB,SB-ML,Bila,yes,AGAF,AFT,
AGAR,small_airport,Ulawa Airport,-9.860543583,161.9795465,40,OC,SB,SB-MK,Arona,no,AGAR,RNA,
AGAT,small_airport,Uru Harbour Airport,-8.87333,161.011002,,OC,SB,SB-ML,Atoifi,yes,AGAT,ATD,
AGBA,small_airport,Barakoma Airport,-7.912779808,156.7059937,,OC,SB,SB-WE,Barakoma,no,AGBA,VEV,
AGEV,small_airport,Geva Airport,-7.575829983,156.5970001,,OC,SB,SB-WE,Liangia,no,AGEV,GEF,
AGG,small_airport,Angoram Airport,-4.055833333,144.0738889,75,OC,PG,PG-ESW,Angoram,no,,AGG,ANG
AGGA,small_airport,Gwaunaru'u Airport,-8.70257,160.682007,5,OC,SB,SB-ML,Auki,yes,AGGA,AKS,
AGGB,small_airport,Bellona/Anua Airport,-11.30222222,159.7983333,60,OC,SB,SB-RB,Anua,yes,AGGB,BNY,
AGGC,small_airport,Choiseul Bay Airport,-6.711944,156.396111,,OC,SB,SB-CH,,yes,AGGC,CHY,
AGGE,small_airport,Ballalae Airport,-6.990745,155.886656,5,OC,SB,SB-WE,Ballalae,yes,AGGE,BAS,
AGGF,small_airport,Fera/Maringe Airport,-8.1075,159.576996,,OC,SB,SB-IS,Fera Island,yes,AGGF,FRE,
AGGH,large_airport,Honiara International Airport,-9.428,160.054993,28,OC,SB,SB-GU,Honiara,yes,AGGH,HIR,
AGGI,small_airport,Babanakira Airport,-9.74750042,159.8390045,,OC,SB,SB-GU,Mbambanakira,yes,AGGI,MBU,
AGGJ,small_airport,Avu Avu Airport,-9.868333333,160.4105556,25,OC,SB,SB-GU,,no,AGGJ,AVU,
AGGK,small_airport,Ngorangora Airport,-10.44970036,161.897995,54,OC,SB,SB-MK,Kirakira,yes,AGGK,IRA,
AGGL,small_airport,Santa Cruz/Graciosa Bay/Luova Airport,-10.72029972,165.7949982,18,OC,SB,SB-TE,Santa Cruz/Graciosa Bay/Luova,yes,AGGL,SCZ,
AGGM,medium_airport,Munda Airport,-8.32797,157.263,10,OC,SB,SB-WE,Munda,yes,AGGM,MUA,
AGGN,small_airport,Nusatupe Airport,-8.097780228,156.8639984,13,OC,SB,SB-WE,Gizo,yes,AGGN,GZO,
AGGO,small_airport,Mono Airport,-7.416940212,155.5650024,,OC,SB,SB-WE,Stirling Island,yes,AGGO,MNY,
AGGP,small_airport,Parasi Airport,-9.641670227,161.4250031,,OC,SB,SB-ML,Parasi,no,AGGP,PRS,
AGGR,small_airport,Rennell/Tingoa Airport,-11.53390026,160.0630035,,OC,SB,SB-RB,Rennell Island,yes,AGGR,RNL,
AGGS,small_airport,Sege Airport,-8.578889847,157.8760071,,OC,SB,SB-WE,Sege,no,AGGS,EGM,
AGGT,small_airport,Santa Ana Airport,-10.847994,162.454108,3,OC,SB,SB-MK,Santa Ana Island,yes,AGGT,NNB,
AGGU,small_airport,Marau Airport,-9.86166954,160.8249969,,OC,SB,SB-GU,Marau,yes,AGGU,RUS,
AGGV,small_airport,Suavanao Airport,-7.585559845,158.7310028,,OC,SB,SB-IS,Suavanao,yes,AGGV,VAO,
AGGY,small_airport,Yandina Airport,-9.092816,159.21841,60,OC,SB,SB-CE,Yandina,yes,AGGY,XYA,
AGK,small_airport,Kagua Airport,-6.396388889,143.8536111,5350,OC,PG,PG-SHM,Kagua,no,,AGK,
AGKG,small_airport,Kaghau Airport,-7.3305,157.585,30,OC,SB,SB-CH,Kagau Island,yes,AGKG,KGE,
AGKU,small_airport,Kukudu Airport,-8.0262,156.94783,32,OC,SB,SB-WE,Kolombangara Island,no,AGKU,KUE,
AGKW,small_airport,Kwailabesi Airport,-8.360508,160.775127,52,OC,SB,SB-ML,Kwailabesi,no,AGKW,KWS,
AGL,small_airport,Wanigela Airport,-9.3375,149.1555556,53,OC,PG,PG-NPP,,no,AYWG,AGL,WGL
AGNA,small_airport,Nana Airport,-10.6758,162.2049,60,OC,SB,SB-MK,Star Harbor,no,AGNA,NAZ,
AGOK,small_airport,Gatokae Aerodrome,-8.738358,158.202836,70,OC,SB,SB-WE,Gatokae,yes,AGOK,GTA,
AGRC,small_airport,Ringi Cove Airport,-8.126390457,157.1430054,,OC,SB,SB-WE,Ringi Cove,no,AGRC,RIN,
AGRM,small_airport,Ramata Airport,-8.168060303,157.6430054,,OC,SB,SB-WE,Ramata,yes,AGRM,RBV,
AGY,small_airport,Argyle Downs Airport,-16.508604,128.922485,407,OC,AU,AU-WA,Argyle Downs,no,,AGY,
AHJ,medium_airport,Hongyuan Airport,32.53154,102.35224,11600,AS,CN,CN-51,Aba,no,ZUHY,AHJ,
AHY,small_airport,Ambatolhy Airport,-20.01583333,45.535,340,AF,MG,MG-U,Ambatolahy,no,,AHY,
AIE,small_airport,Aiome Airport,-5.145699978,144.7307003,350,OC,PG,PG-MPM,Aiome,no,AYAO,AIE,AIO
AIH,small_airport,Aiambak Airport,-7.342777778,141.2675,90,OC,PG,PG-WPD,Aiambak,no,AYAK,AIH,AMB
AIP,small_airport,Ailinglaplap Airok Airport,7.279422,168.8257,16,OC,MH,MH-ALL,Bigatyelang Island,yes,,AIC,
AK13,small_airport,Chena Hot Springs Airport,65.05180359,-146.0469971,1195,NA,US,US-AK,Chena Hot Springs,no,AK13,CEX,AK13
AK26,small_airport,Solomon State Field,64.5605,-164.4457,25,NA,US,US-AK,Solomon,no,AK26,SOL,AK26
AK33,small_airport,Herendeen Bay Airport,55.80139923,-160.8990021,20,NA,US,US-AK,Herendeen Bay,no,AK33,HED,AK33
AK49,small_airport,Taylor Airport,65.6792984,-164.798996,440,NA,US,US-AK,Taylor,no,AK49,TWE,AK49
AK56,seaplane_base,Tikchik Lodge Seaplane Base,59.96319962,-158.477005,304,NA,US,US-AK,Tikchik,no,AK56,KTH,AK56
AK62,seaplane_base,Naukati Bay Seaplane Base,55.849602,-133.227994,0,NA,US,US-AK,Tuxekan Island,no,AK62,NKI,AK62
AK71,small_airport,Point Lonely Short Range Radar Site Airfield,70.911118,-153.237766,17,NA,US,US-AK,Point Lonely,no,PALN,LNI,AK71
AK75,small_airport,Candle 2 Airport,65.90769959,-161.9259949,15,NA,US,US-AK,Candle,no,AK75,CDL,AK75
AK81,seaplane_base,Amook Bay Seaplane Base,57.4715004,-153.8150024,,NA,US,US-AK,Amook Bay,yes,AK81,AOS,AK81
AK97,small_airport,Boswell Bay Airport,60.42309952,-146.1459961,230,NA,US,US-AK,Boswell Bay,no,AK97,BSW,AK97
AKM,small_airport,Zakuoma Airport,10.89027778,19.81722222,1370,AF,TD,TD-SA,ZaKouma,no,,AKM,
AL73,small_airport,Sharpe Field,32.4919014,-85.77559662,253,NA,US,US-AL,Tuskegee,no,AL73,TGE,AL73
ALZ,seaplane_base,Alitak Seaplane Base,56.8995018,-154.2480011,,NA,US,US-AK,Lazy Bay,no,,ALZ,ALZ
AMC,small_airport,Mar de Cortés International Airport,31.351987,-113.305177,71,NA,MX,MX-SON,Puerto Peñasco,yes,MMPE,PPE,83550
AME,small_airport,Alto Molocue Airport,-15.61027778,37.68138889,1950,AF,MZ,MZ-Q,Alto Molocue,no,,AME,
AMF,small_airport,Ama Airport,-4.101111111,141.67,145,OC,PG,PG-ESW,,no,AYAA,AMF,AMA
AMU,small_airport,Amanab Airport,-3.586,141.2143333,1307,OC,PG,PG-SAN,Amanab,no,AYAM,AMU,ANA
AMY,small_airport,Ambatomainty Airport,-17.68666667,45.62388889,1025,AF,MG,MG-M,,no,,AMY,
ANYN,medium_airport,Nauru International Airport,-0.547458,166.919006,22,OC,NR,NR-14,Yaren District,yes,ANYN,INU,
ANZ,small_airport,Angus Downs Airport,-25.0325,132.2748,1724,OC,AU,AU-NT,Angus Downs Station,no,,ANZ,
AO-0001,small_airport,Catoca Airport,-9.430985,20.311478,3498,AF,AO,AO-LSU,Saurimo,no,,CTV,
AO-0005,small_airport,Andulo Airport,-11.4723,16.710899,,AF,AO,AO-BIE,Andulo,no,,ANL,
AO-CNZ,small_airport,Cangamba Airport,-13.7106,19.861099,3894,AF,AO,AO-MOX,Cangamba,no,,CNZ,
AO-DRC,small_airport,Dirico Airport,-17.98192406,20.76806068,3504,AF,AO,AO-CCU,Dirico,no,,DRC,
AO-GGC,small_airport,Lumbala Airport,-12.63987732,22.5868206,3510,AF,AO,AO-MOX,Lumbala,no,,GGC,
AO-JMB,small_airport,Jamba Airport,-14.6981926,16.07014847,4912,AF,AO,AO-HUA,Jamba,no,,JMB,
AO-KNP,small_airport,Capanda Airport,-9.769370079,15.4553194,3366,AF,AO,AO-MAL,Capanda,no,FNCP,KNP,
AO-NDF,small_airport,N'dalatando Airport,-9.280378,14.982432,2684,AF,AO,AO-CNO,N'dalatando,no,,NDF,
AOB,small_airport,Annanberg Airport,-4.904166667,144.6358333,130,OC,PG,PG-MPM,,no,,AOB,ANB
AOD,small_airport,Abou-Deïa Airport,11.4773,19.2874,1592,AF,TD,TD-SA,Abou-Deïa,no,,AOD,
APP,small_airport,Asapa Airport,-8.979166667,148.1036111,1930,OC,PG,PG-NPP,,no,,APP,APA
APR,small_airport,April River Airport,-4.676666667,142.5401389,220,OC,PG,PG-ESW,April River,no,AYPE,APR,APR
AQ-0002,small_airport,Troll Airfield,-71.95714,2.45257,4167,AN,AQ,AQ-U-A,Troll Station,no,AT27,QET,
AQY,small_airport,Girdwood Airport,60.968774,-149.119792,150,NA,US,US-AK,Girdwood,no,,AQY,AQY
AR-0005,small_airport,Bragado Airport,-35.145811,-60.480294,196,SA,AR,AR-B,Bragado,no,SA2X,QRF,BRA
AR-0007,small_airport,Caleta Olivia Airport,-46.37428,-67.59409,37,SA,AR,AR-Z,Caleta Olivia,no,,CVI,CAO
AR-0009,small_airport,Charata Airport,-27.2164,-61.2103,318,SA,AR,AR-H,Charata,no,,CNT,CHA
AR-0010,small_airport,General Villegas Airport,-34.995728,-62.999725,383,SA,AR,AR-B,General Villegas,no,,VGS,GAS
AR-0011,small_airport,Los Menucos Airport,-40.817699,-68.074699,2571,SA,AR,AR-R,Los Menucos,no,,LMD,MCO
AR-0017,small_airport,Valcheta Airport,-40.70000076,-66.15000153,629,SA,AR,AR-R,Valcheta,no,,VCF,VAL
AR-0346,small_airport,Sunchales Aeroclub Airport,-30.9575,-61.5283,299,SA,AR,AR-S,Sunchales,no,SAFS,NCJ,SCA
AR-0390,small_airport,Carmen de Patagones Airport,-40.7781,-62.9803,131,SA,AR,AR-B,Carmen de Patagones,no,SA3R,CPG,PAT
AR-0462,small_airport,Termal Airport,-26.753611,-60.492222,308,SA,AR,AR-H,Presidencia Roque Sáenz Peña,no,SARS,PRQ,PSP
AR-0494,small_airport,Colonia Sarmiento Airport,-45.582371,-68.999841,877,SA,AR,AR-U,Sarmiento,no,,OLN,STO
ARP,small_airport,Aragip Airport,-9.883333333,149.4833333,1750,OC,PG,PG-MBA,,no,,ARP,AGP
ASZ,small_airport,Asirim Airport,-6.009722222,150.3686111,1050,OC,PG,PG-WBK,,no,,ASZ,ASM
ATN,small_airport,Namatanai Airport,-3.6695,152.438,150,OC,PG,PG-NIK,Namatanai,no,AYNX,ATN,NTI
ATP,small_airport,Aitape Airport,-3.143611111,142.3468056,10,OC,PG,PG-SAN,Aitape,yes,AYAI,ATP,APE
AU-0081,small_airport,Lady Elliot Island Airstrip,-24.1129,152.7156,20,OC,AU,AU-QLD,Lady Elliot Island,no,,LYT,
AU-AGW,small_airport,Agnew Airport,-12.14560032,142.1490021,,OC,AU,AU-QLD,Agnew,no,,AGW,
AU-AYD,small_airport,Alroy Downs Airport,-19.2908,136.078995,711,OC,AU,AU-NT,Alroy Downs,no,YALD,AYD,
AU-BYX,small_airport,Baniyala Airport,-13.19810009,136.227005,20,OC,AU,AU-NT,Baniyala,no,,BYX,
AU-COB,small_airport,Coolibah Airport,-15.54829979,130.9620056,,OC,AU,AU-NT,Coolibah,no,,COB,
AU-CRJ,small_airport,Coorabie Airport,-31.89439964,132.2960052,,OC,AU,AU-SA,Coorabie,no,,CRJ,
AU-CRY,small_airport,Carlton Hill Airport,-15.50189972,128.5339966,,OC,AU,AU-WA,Carlton Hill,no,,CRY,
AU-CSD,small_airport,Cresswell Downs Airport,-17.94799995,135.9160004,,OC,AU,AU-NT,Cresswell Downs,no,,CSD,
AU-DYM,small_airport,Diamantina Lakes Airport,-23.76169968,141.1450043,,OC,AU,AU-QLD,Diamantina Lakes,no,,DYM,
AU-HIS,seaplane_base,Hayman Island Resort Seaplane Base,-20.05999947,148.8809967,,OC,AU,AU-QLD,Hayman Island,yes,,HIS,
AU-HLV,small_airport,Helenvale Airport,-15.6857996,145.2149963,,OC,AU,AU-QLD,Helenvale,no,,HLV,
AU-KBD,small_airport,Kimberley Downs Airport,-17.39780045,124.3550034,,OC,AU,AU-WA,Kimberley Downs,no,,KBD,
AU-KGR,small_airport,Kulgera Airport,-25.84280014,133.2920074,,OC,AU,AU-NT,Kulgera,no,,KGR,
AU-MYO,small_airport,Camballin Airport,-18.12470055,124.2720032,,OC,AU,AU-WA,Myroodah,no,,MYO,
AU-OKB,small_airport,Orchid Beach Airport,-24.95940018,153.3150024,71,OC,AU,AU-QLD,Orchid Beach,no,YORC,OKB,YORC
AU-PEP,small_airport,Peppimenarti Airport,-14.14420033,130.0910034,83,OC,AU,AU-NT,Peppimenarti,no,,PEP,YPEP
AU-RDA,small_airport,Rockhampton Downs Airport,-18.95330048,135.201004,,OC,AU,AU-NT,Rockhampton Downs,no,,RDA,
AU-SSK,small_airport,Sturt Creek Airport,-19.16640091,128.173996,,OC,AU,AU-WA,Sturt Creek,no,,SSK,
AU-SWB,small_airport,Shaw River Airport,-21.51029968,119.3619995,,OC,AU,AU-WA,Shaw River,no,,SWB,
AU-TPR,small_airport,Tom Price Airport,-22.74600029,117.8690033,2300,OC,AU,AU-WA,Tom Price,no,YTMP,TPR,
AU-TWP,small_airport,Torwood Airport,-17.36330032,143.75,,OC,AU,AU-QLD,Torwood,no,,TWP,
AU-ZVG,small_airport,Springvale Airport,-17.78689957,127.6699982,,OC,AU,AU-WA,Springvale,no,,ZVG,
AUI,small_airport,Aua Island Airport,-1.460555556,143.0647222,4,OC,PG,PG-MRL,Aua Island,no,AYND,AUI,AUA
AUJ,small_airport,Ambunti Airport,-4.215666667,142.8231667,50,OC,PG,PG-ESW,Ambunti,no,AYAT,AUJ,AMI
AUP,small_airport,Agaun Airport,-9.930833,149.385667,3200,OC,PG,PG-MBA,,no,AYAG,AUP,AUN
AUV,small_airport,Aumo Airport,-5.731111111,148.4452778,450,OC,PG,PG-WBK,Aumo,no,AYUM,AUV,AUMO
AWE,small_airport,Alowe Airport,-0.545,9.444,600,AF,GA,GA-3,Wonga Wongué Presidential Reserve,no,FOGW,AWE,
AXF,medium_airport,Alxa Left Banner Bayanhot Airport,38.74831,105.58858,4560,AS,CN,CN-15,Bayanhot,yes,ZBAL,AXF,
AXO,small_airport,Pantar Airport,-8.24638,124.21971,18,AS,ID,ID-NT,Alor Island,no,WATP,AXO,
AYAQ,small_airport,Kompiam Airport,-5.381666667,143.9247222,5100,OC,PG,PG-EPW,,no,AYAQ,KPM,KOM
AYBK,medium_airport,Buka Airport,-5.422319889,154.6730042,11,OC,PG,PG-NSB,Buka Island,yes,AYBK,BUA,
AYBR,small_airport,Biaru Airport,-7.6693,146.7594,4900,OC,PG,PG-MPL,Biaru,no,AYBR,BRP,BRU
AYCH,medium_airport,Chimbu Airport,-6.024290085,144.970993,4974,OC,PG,PG-CPK,Kundiawa,yes,AYCH,CMU,
AYDK,small_airport,Munduku Airport,-4.6204,143.4516,100,OC,PG,PG-ESW,Munduku,no,AYDK,MDM,MUN
AYDL,small_airport,Kondobol Airport,-8.5336,142.5049,132,OC,PG,PG-WPD,Kondobol,no,AYDL,KPF,KDB
AYDN,small_airport,Dinangat Airport,-6.1546,146.6772,5309,OC,PG,PG-MPL,Dinangat,no,AYDN,DNU,DIN
AYDO,small_airport,Doini Airport,-10.7009,150.7218,31,OC,PG,PG-MBA,Castori Islets,no,AYDO,DOI,DOI
AYDU,medium_airport,Daru Airport,-9.086759567,143.2079926,20,OC,PG,PG-WPD,Daru,yes,AYDU,DAU,
AYEB,small_airport,Embessa Airport,-9.447,148.7628,131,OC,PG,PG-NPP,Embessa,no,AYEB,EMS,EMB
AYED,small_airport,Edwaki Airport,-3.883986,141.792234,190,OC,PG,PG-SAN,Yellow River Mission,no,AYED,XYR,EWK
AYEL,small_airport,Eliptamin Airport,-5.0412,141.6779,4825,OC,PG,PG-SAN,Eliptamin,no,AYEL,EPT,ELP
AYEN,small_airport,Engati Airstrip,-6.9179,146.1053,3715,OC,PG,PG-MPL,Engati,no,AYEN,EGA,EGT
AYEO,small_airport,Emo River Airstrip,-9.1234,148.0415,2240,OC,PG,PG-NPP,Emo Mission,no,AYEO,EMO,EMO
AYER,small_airport,Erume Airport,-8.2538,146.9747,6690,OC,PG,PG-CPM,Erume,no,AYER,ERU,EME
AYES,small_airport,Meselia Airport,-6.1364,149.1183,180,OC,PG,PG-WBK,Demgulu,no,AYES,MFZ,
AYFE,small_airport,Feramin Airport,-5.208,141.6988,4655,OC,PG,PG-SAN,Feramin,no,AYFE,FRQ,FMN
AYFR,small_airport,Frieda River Airport,-4.610468,141.960138,217,OC,PG,PG-ESW,Frieda River,no,AYFR,FAQ,FRR
AYFU,small_airport,Fuma Airport,-6.3933,142.4408,466,OC,PG,PG-WPD,Fuma,no,AYFU,FUM,FUMA
AYGA,medium_airport,Goroka Airport,-6.081689835,145.3919983,5282,OC,PG,PG-EHG,Goronka,yes,AYGA,GKA,
AYGF,small_airport,Guari Airport,-8.1286,146.8722,6450,OC,PG,PG-CPM,Guari,no,AYGF,GUG,GAI
AYGG,small_airport,Garasa Airport,-7.980713,147.213461,2539,OC,PG,PG-MPL,Au,no,AYGG,GRL,GSA
AYGN,medium_airport,Gurney Airport,-10.3114996,150.3339996,88,OC,PG,PG-MBA,Gurney,yes,AYGN,GUR,
AYGP,small_airport,Gusap Airport,-6.053196,145.959047,1504,OC,PG,PG-GPK,Gusap,no,AYGP,GAP,GSP
AYGR,medium_airport,Girua Airport,-8.80453968,148.3090057,311,OC,PG,PG-NPP,Popondetta,yes,AYGR,PNP,
AYGS,small_airport,Gasuke Airport,-6.1028,141.7393,157,OC,PG,PG-WPD,Gasuke,no,AYGS,GBC,GSK
AYHB,small_airport,Habi Airport,-6.32,142.4893,993,OC,PG,PG-WPD,Habi,no,AYHB,HBD,HABI
AYHE,small_airport,Heiweni Airport,-7.4223,146.4276,3480,OC,PG,PG-MPL,Heiweni,no,AYHE,HNI,HWI
AYHH,small_airport,Honinabi Airport,-16.2457,142.1771,452,OC,PG,PG-WPD,Honinabi,no,AYHH,HNN,HBI
AYHK,large_airport,Hoskins Airport,-5.46217,150.404999,66,OC,PG,PG-WBK,Kimbe,yes,AYHK,HKN,
AYHO,small_airport,Haivaro Airport,-6.9406,143.059,180,OC,PG,PG-GPK,Haivaro,no,AYHO,HIT,HWO
AYII,small_airport,Imane Airport,-6.7524,146.1072,3860,OC,PG,PG-MPL,Imane,no,AYII,IMN,IMN
AYIM,small_airport,Kungim Airport,-5.671,141.03,349,OC,PG,PG-WPD,Kungim,no,AYIM,KGM,KNM
AYIO,small_airport,Imonda Airport,-3.328,141.1573,990,OC,PG,PG-SAN,Imonda,no,AYIO,IMD,IMO
AYIQ,small_airport,Aropa Airport,-6.305417,155.728139,20,OC,PG,PG-NSB,Kieta,yes,AYIQ,KIE,KIA
AYIU,small_airport,Ialibu Airport,-6.2782,143.9944,6736,OC,PG,PG-SHM,Ialibu,no,AYIU,IAL,IBU
AYIX,small_airport,Witu Airport,-4.689522,149.440112,25,OC,PG,PG-WBK,Garove Island,no,AYIX,WIU,WITU
AYJO,small_airport,Yongai Airport,-8.5289,147.4603,6500,OC,PG,PG-CPM,Yongai,no,AYJO,KGH,YON
AYKA,small_airport,Losuia Airport,-8.505820274,151.0809937,27,OC,PG,PG-MBA,Losuia,yes,AYKA,LSA,
AYKG,small_airport,Kopiago Airport,-5.3883,142.4977,4445,OC,PG,PG-HE,Kopiago,no,AYKG,KPA,KGO
AYKI,small_airport,Kiunga Airport,-6.125710011,141.2819977,88,OC,PG,PG-WPD,Kiunga,yes,AYKI,UNG,
AYKJ,small_airport,Kanainj Airport,-5.2903,144.7072,4064,OC,PG,PG-MPM,Kanainj,no,AYKJ,KNE,KNJ
AYKK,small_airport,Kikori Airport,-7.424379826,144.2500763,50,OC,PG,PG-GPK,Kikori,yes,AYKK,KRI,
AYKM,medium_airport,Kerema Airport,-7.963610172,145.7709961,10,OC,PG,PG-GPK,Kerema,yes,AYKM,KMA,
AYKR,small_airport,Kar Kar Airport,-4.557,145.9404,130,OC,PG,PG-MPM,Kar Kar Island,no,AYKR,KRX,KKR
AYKU,small_airport,Kuri Airport,-7.135083,143.276111,35,OC,PG,PG-GPK,Kuri,no,AYKU,KUQ,KURI
AYKV,medium_airport,Kavieng Airport,-2.579400063,150.8079987,7,OC,PG,PG-NIK,Kavieng,yes,AYKV,KVG,
AYKY,small_airport,Londolovit Airport,-3.043610096,152.6289978,167,OC,PG,PG-NIK,Londolovit,yes,AYKY,LNV,
AYLB,small_airport,Lab Lab Airport,-5.7204,148.0566,160,OC,PG,PG-MPL,Lab Lab Mission,no,AYLB,LAB,LAB
AYLO,small_airport,Lowai Airport,-6.3344,146.6458,2900,OC,PG,PG-MPL,Lowai,no,AYLO,LWI,LOW
AYLP,small_airport,Leron Plains Airport,-6.3917,146.3434,680,OC,PG,PG-MPL,Leron Plains,no,AYLP,LPN,LPS
AYLS,small_airport,Lese Airport,-8.2799,146.2765,40,OC,PG,PG-GPK,Lese,no,AYLS,LNG,LESE
AYLX,small_airport,Long Island Airport,-5.3604,147.0177,116,OC,PG,PG-MPM,Long Island,no,AYLX,LSJ,LIS
AYM,seaplane_base,Yas Island Seaplane Base,24.467,54.6103,0,AS,AE,AE-AZ,Abu Dhabi,no,,AYM,
AYMA,small_airport,Manari Airport,-9.1908,147.6219,2630,OC,PG,PG-NPP,Manari,no,AYMA,MRM,MRI
AYMB,small_airport,Morobe Airport,-7.74,147.59,8,OC,PG,PG-MPL,Morobe,no,AYMB,OBM,MBE
AYMD,medium_airport,Madang Airport,-5.207079887,145.7890015,20,OC,PG,PG-MPM,Madang,yes,AYMD,MAG,
AYMH,medium_airport,Mount Hagen Kagamuga Airport,-5.826789856,144.2960052,5388,OC,PG,PG-WHM,Mount Hagen,yes,AYMH,HGU,
AYML,small_airport,Mougulu Airport,-6.280859,142.420775,825,OC,PG,PG-WPD,Mougulu,no,AYML,GUV,MGU
AYMN,medium_airport,Mendi Airport,-6.14774,143.656998,5680,OC,PG,PG-SHM,Mendi,yes,AYMN,MDU,
AYMO,large_airport,Momote Airport,-2.06189,147.423996,12,OC,PG,PG-MRL,Manus Island,yes,AYMO,MAS,
AYMR,small_airport,Moro Airport,-6.363329887,143.2380066,2740,OC,PG,PG-SHM,Moro,yes,AYMR,MXH,
AYMS,small_airport,Misima Island Airport,-10.6892004,152.8379974,26,OC,PG,PG-MBA,Misima Island,yes,AYMS,MIS,
AYMW,small_airport,Marawaka Airport,-6.9736,145.8849,6050,OC,PG,PG-EHG,Marawaka,no,AYMW,MWG,MWK
AYNA,small_airport,Nankina Airport,-5.837,146.4533,5800,OC,PG,PG-MPM,Gwarawon,no,AYNA,NKN,NKN
AYNE,small_airport,Negarbo(Negabo) Airport,-6.567778,144.703058,4500,OC,PG,PG-CPK,Negarbo,no,AYNE,GBF,NBO
AYNG,small_airport,Manguna Airport,-5.577778,151.792333,187,OC,PG,PG-EBR,Manguna,no,AYNG,MFO,MGA
AYNM,small_airport,Kasonombe Airport,-6.3819,146.9859,5800,OC,PG,PG-MPL,Kasonombe,no,AYNM,KSB,KNB
AYNO,small_airport,Nomane Airport,-6.32183,145.070667,6032,OC,PG,PG-CPK,Namane,no,AYNO,NMN,NOM
AYNY,small_airport,Nambaiyufa Airport,-6.2412,145.2424,5550,OC,PG,PG-CPK,Nambaiyufa,no,AYNY,NBA,NBF
AYNZ,medium_airport,Nadzab Airport,-6.569803,146.725977,239,OC,PG,PG-MPL,Lae,yes,AYNZ,LAE,
AYOE,small_airport,Konge Airport,-6.2239,147.2152,5900,OC,PG,PG-MPL,Konge,no,AYOE,KGB,KGE
AYOJ,small_airport,Oksapmin Airport,-5.2261,142.2259,5140,OC,PG,PG-SAN,Oksapmin,no,AYOJ,OKP,OKN
AYOK,small_airport,Komako Airport,-7.3984,145.8827,3960,OC,PG,PG-GPK,Komako,no,AYOK,HOC,KMA
AYOQ,small_airport,Komaio Airport,-7.2714,143.5952,28,OC,PG,PG-GPK,Komaio,no,AYOQ,KCJ,KOI
AYOW,small_airport,Koroba Airport,-5.6952,142.7441,5638,OC,PG,PG-HE,Koroba,no,AYOW,KDE,
AYOY,small_airport,Open Bay Airport,-4.794727,151.696195,33,OC,PG,PG-WBK,Maitanakunai,no,AYOY,OPB,OBY
AYPC,small_airport,Pangoa Airport,-7.0226,141.5605,60,OC,PG,PG-WPD,Pangoa,no,AYPC,PGB,PGA
AYPG,small_airport,Pangia Airport,-6.386,144.1084,5340,OC,PG,PG-SHM,Pangia,no,AYPG,PGN,PNA
AYPO,small_airport,Mapoda Airport,-7.979,143.1694,45,OC,PG,PG-WPD,Mapoda,no,AYPO,MPF,MPO
AYPQ,small_airport,Pumani Airport,-9.7469,149.4766,427,OC,PG,PG-MBA,Pumani,no,AYPQ,PMN,PMN
AYPY,large_airport,Port Moresby Jacksons International Airport,-9.443380356,147.2200012,146,OC,PG,PG-NCD,Port Moresby,yes,AYPY,POM,
AYQO,small_airport,Sopu Airport,-8.3038,147.1659,6580,OC,PG,PG-CPM,Sopu,no,AYQO,SPH,SOPU
AYQS,small_airport,Sialum Airport,-6.0908,147.5955,170,OC,PG,PG-MPL,Sialum,no,AYQS,SXA,SLU
AYRG,small_airport,Rumginae Airport,-5.897222222,141.2716667,160,OC,PG,PG-WPD,,no,AYRG,RMN,RMG
AYRI,small_airport,Karimui Airport,-6.4921,144.823,3640,OC,PG,PG-CPK,Karimui,no,AYRI,KMR,KRI
AYRM,small_airport,Maramuni Airport,-5.13,143.4829,5160,OC,PG,PG-EPW,Maramuni,no,AYRM,MWI,MAR
AYRV,small_airport,May River Airstrip,-4.3615,141.785,107,OC,PG,PG-ESW,May River,no,AYRV,MRH,MRV
AYSA,small_airport,Suabi Airport,-6.104444444,142.2783333,465,OC,PG,PG-WPD,,no,AYSA,SBE,SUA
AYSE,small_airport,Simberi Airport,-2.662222222,151.9977778,10,OC,PG,PG-NIK,Simberi Island,no,AYSE,NIS,SBI
AYSG,small_airport,Sila Airport,-9.073555556,148.38925,2230,OC,PG,PG-NPP,Sila Mission,no,AYSG,SIL,SILA
AYSH,small_airport,Sabah Airport,-5.5765,155.0489,10,OC,PG,PG-NSB,Sabah,no,AYSH,SBV,SAB
AYSJ,small_airport,Simbai Airport,-5.278611111,144.5447222,5804,OC,PG,PG-MPM,Simbai,no,AYSJ,SIM,SAI
AYSO,small_airport,Selbang Airport,-5.315,141.752,5130,OC,PG,PG-WPD,Selbang,no,AYSO,SBC,SEL
AYSQ,small_airport,Sepik Plains Airport,-3.8821,143.6734,230,OC,PG,PG-ESW,Sepik Plains,no,AYSQ,SPV,SPP
AYSV,small_airport,Sauren Airport,-5.9701,148.8543,46,OC,PG,PG-WBK,Sauren,no,AYSV,SXW,SAU
AYSX,small_airport,Masa Airport,-6.345,147.591,5900,OC,PG,PG-MPL,Masa,no,AYSX,MBV,MASA
AYTA,small_airport,Tari Airport,-5.84499979,142.947998,5500,OC,PG,PG-HE,Tari,yes,AYTA,TIZ,
AYTB,small_airport,Tabubil Airport,-5.27861,141.225998,1570,OC,PG,PG-WPD,Tabubil,yes,AYTB,TBG,
AYTI,small_airport,Tapini Airport,-8.356666667,146.9891667,3100,OC,PG,PG-CPM,Tapini,yes,AYTI,TPI,TAP
AYTK,medium_airport,Tokua Airport,-4.34046,152.380005,49,OC,PG,PG-EBR,Kokopo,yes,AYTK,RAB,
AYTN,small_airport,Tekin Airport,-5.243666667,142.1651944,5785,OC,PG,PG-SAN,Tekin,no,AYTN,TKW,TEK
AYTP,small_airport,Tep Tep Airport,-5.9553,146.5595,7011,OC,PG,PG-MPM,Teptep,no,AYTP,TEP,TEP
AYTS,small_airport,Tsewi Airport,-7.0695,146.1272,4185,OC,PG,PG-MPL,Tsewi,no,AYTS,TSW,TSE
AYTT,small_airport,Tarakbits Airport,-5.614,141.0421,281,OC,PG,PG-WPD,Tarakbits,no,AYTT,TRJ,TRT
AYTW,small_airport,Tawa Airport,-7.4463,146.1067,5020,OC,PG,PG-MPL,Tawa,no,AYTW,TWY,TAWA
AYTZ,small_airport,Tekadu Airport,-7.6808,146.5503,1310,OC,PG,PG-MPL,Tekadu,no,AYTZ,TKB,TKD
AYU,small_airport,Aiyura Airport,-6.338055556,145.9041667,5355,OC,PG,PG-EHG,Aiyura Valley,no,AYAY,AYU,AYU
AYUC,small_airport,Umba Airport,-7.0214,145.966,5950,OC,PG,PG-MPL,Umba,no,AYUC,UMC,UMBA
AYUE,small_airport,Uroubi Airport,-9.5162,148.5591,481,OC,PG,PG-NPP,Uroubi,no,AYUE,URU,URO
AYUR,small_airport,Upiara Airport,-8.5411,142.6503,52,OC,PG,PG-WPD,Upiara,no,AYUR,UPR,UPA
AYUZ,small_airport,Uvol Airport,-6.0178,150.9557,15,OC,PG,PG-EBR,Uvol,no,AYUZ,UVO,UVOL
AYVL,small_airport,Talasea Airport,-5.2726,150.0089,44,OC,PG,PG-WBK,Talasea,no,AYVL,TLW,TLS
AYVM,small_airport,Torembi Airport,-4.0165,143.1329,90,OC,PG,PG-ESW,Torembi,no,AYVM,TCJ,TBI
AYVN,medium_airport,Vanimo Airport,-2.6926,141.3028,10,OC,PG,PG-SAN,Vanimo,yes,AYVN,VAI,
AYVO,small_airport,Tonu Airport,-6.6552,155.4326,300,OC,PG,PG-NSB,Tonu,no,AYVO,TON,TONU
AYWB,small_airport,Wabo Airport,-6.989444444,145.0751111,132,OC,PG,PG-GPK,Wabo,no,AYWB,WAO,WABO
AYWD,medium_airport,Wapenamanda Airport,-5.6433,143.895004,5889,OC,PG,PG-EPW,Wapenamanda,yes,AYWD,WBM,
AYWF,small_airport,Wawoi Falls Airport,-6.9523,142.6557,370,OC,PG,PG-WPD,Wavoi Falls,no,AYWF,WAJ,WWF
AYWK,medium_airport,Wewak International Airport,-3.583830118,143.6690063,19,OC,PG,PG-ESW,Wewak,yes,AYWK,WWK,
AYWO,small_airport,Wonenara Airport,-6.796861111,145.8919444,5028,OC,PG,PG-EHG,Wonenara,no,AYWO,WOA,WOA
AYWQ,small_airport,Wakunai Airport,-5.8603,155.2223,20,OC,PG,PG-EBR,Wakunai,no,AYWQ,WKN,WAI
AYWS,small_airport,Wasu Airport,-5.961709449,147.1982253,34,OC,PG,PG-MPL,Wasu,no,AYWS,WSU,WASU
AYWT,small_airport,Woitape Airport,-8.545833333,147.2525,5200,OC,PG,PG-CPM,Fatima Mission,yes,AYWT,WTP,WTP
AYWU,small_airport,Wau Airport,-7.345555556,146.7186111,3600,OC,PG,PG-SAN,Wau,no,AYWU,WUG,WAU
AYXE,small_airport,Yeva Airport,-7.548,146.188,4510,OC,PG,PG-MPL,Yeva,no,AYXE,YVD,YEVA
AYXI,small_airport,Sim Airport,-7.75,146.9273,5460,OC,PG,PG-MPL,Sim,no,AYXI,SMJ,SIM
AYXW,small_airport,Weam Airport,-8.6184,141.1381,50,OC,PG,PG-WPD,Weam,no,AYXW,WEP,WEAM
AYY,seaplane_base,Arugam Bay SPB,6.86,81.82388889,,AS,LK,LK-5,Pottuvil,no,,AYY,
AYYE,small_airport,Yalumet Airport,-6.09,147.0117,2600,OC,PG,PG-MPL,Yalumet,no,AYYE,KYX,YLT
AYYR,small_airport,Yasuru Airport,-6.6015,146.1813,1520,OC,PG,PG-MPL,Yasuru,yes,AYYR,KSX,YAS
AYZM,small_airport,Wasum Airport,-6.0491,149.337,175,OC,PG,PG-WBK,Wasum,no,AYZM,WUM,WSM
AZ-0001,medium_airport,Zabrat Airport,40.49554222,49.97680664,36,AS,AZ,AZ-BA,Baku,no,UBTT,ZXT,
AZ-0011,small_airport,Fizuli Airport,39.594578,47.196128,1209,AS,AZ,AZ-FUZ,Fizuli,no,UBBF,FZL,
AZB,small_airport,Amazon Bay Airport,-10.29916667,149.3383333,12,OC,PG,PG-CPM,,no,,AZB,AZB
AZJ,small_airport,Zhenjiang Dalu Airport,32.23649,119.718683,16,AS,CN,CN-32,Zhenjiang,no,,AZJ,
BAJ,small_airport,Bali Airport,-4.883333333,149.1333333,90,OC,PG,PG-WBK,Unea Island,no,,BAJ,BALI
BCP,small_airport,Bambu Airport,-5.863611111,146.4925,6790,OC,PG,PG-MPM,Bambu,no,AYBC,BCP,BAM
BCW,medium_airport,Benguera Island Airport,-21.85330009,35.43830109,,AF,MZ,MZ-I,Benguera Island,yes,,BCW,
BCZ,small_airport,Milyakburra Airport,-13.78083333,136.2016667,85,OC,AU,AU-NT,Bickerton Island,no,,BCZ,YBIC
BDH,small_airport,Willmar Municipal -John L Rice Field,45.11769867,-95.13040161,1126,NA,US,US-MN,Willmar,no,KBDH,ILL,BDH
BDZ,small_airport,Baindoung Airport,-6.347222222,146.9422222,4400,OC,PG,PG-MPL,,no,AYBG,BDZ,BDO
BG-HKV,small_airport,Malevo Airport,41.87179947,25.60479927,600,EU,BG,BG-26,Haskovo,no,,HKV,
BG-JAM,medium_airport,Bezmer Air Base,42.45489883,26.35219955,509,EU,BG,BG-28,Yambol,no,LBIA,JAM,
BGAA,medium_airport,Aasiaat Airport,68.721802,-52.784698,74,NA,GL,GL-U-A,Aasiaat,yes,BGAA,JEG,
BGBW,medium_airport,Narsarsuaq Airport,61.1605,-45.425999,112,NA,GL,GL-U-A,Narsarsuaq,yes,BGBW,UAK,
BGCO,small_airport,Neerlerit Inaat Airport,70.74310303,-22.65049934,45,NA,GL,GL-U-A,Neerlerit Inaat,yes,BGCO,CNP,
BGGH,medium_airport,Godthaab / Nuuk Airport,64.190903,-51.678101,283,NA,GL,GL-U-A,Nuuk,yes,BGGH,GOH,
BGJN,small_airport,Ilulissat Airport,69.243202,-51.057098,95,NA,GL,GL-U-A,Ilulissat,yes,BGJN,JAV,
BGKK,medium_airport,Kulusuk Airport,65.573601,-37.1236,117,NA,GL,GL-U-A,Kulusuk,yes,BGKK,KUS,
BGMQ,small_airport,Maniitsoq Airport,65.412498,-52.9394,91,NA,GL,GL-U-A,Maniitsoq,yes,BGMQ,JSU,
BGPT,small_airport,Paamiut Airport,62.01473618,-49.67093658,120,NA,GL,GL-U-A,Paamiut,yes,BGPT,JFR,
BGQQ,small_airport,Qaanaaq Airport,77.48860168,-69.38870239,51,NA,GL,GL-U-A,Qaanaaq,yes,BGQQ,NAQ,
BGSF,medium_airport,Kangerlussuaq Airport,67.012222,-50.711603,165,NA,GL,GL-U-A,Kangerlussuaq,yes,BGSF,SFJ,
BGSS,medium_airport,Sisimiut Airport,66.951302,-53.729301,33,NA,GL,GL-U-A,Sisimiut,yes,BGSS,JHS,
BGTL,medium_airport,Thule Air Base,76.53119659,-68.70320129,251,NA,GL,GL-U-A,Thule,yes,BGTL,THU,
BGUK,small_airport,Upernavik Airport,72.79019928,-56.13059998,414,NA,GL,GL-U-A,Upernavik,yes,BGUK,JUV,
BGUQ,small_airport,Qaarsut Airport,70.73419952,-52.69620132,289,NA,GL,GL-U-A,Uummannaq,yes,BGUQ,JQA,
BHL,small_airport,Bahía de los Ángeles Airport,28.9786,-113.560997,34,NA,MX,MX-BCN,Ensenada,no,,BHL,BAX
BHT,small_airport,Brighton Downs Airport,-23.36388889,141.5627778,390,OC,AU,AU-QLD,,no,,BHT,
BIAR,medium_airport,Akureyri Airport,65.66000366,-18.0727005,6,EU,IS,IS-6,Akureyri,yes,BIAR,AEY,
BIBD,small_airport,Bildudalur Airport,65.64129639,-23.5461998,18,EU,IS,IS-4,Bildudalur,no,BIBD,BIU,
BIBF,small_airport,Borgarfjörður eystri Airport,65.5164032,-13.80500031,80,EU,IS,IS-7,Borgarfjörður eystri,no,BIBF,BGJ,
BIBK,small_airport,Bakkafjörður Airport,66.02189636,-14.82439995,14,EU,IS,IS-6,Bakkafjörður,no,BIBK,BJD,
BIBL,small_airport,Hjaltabakki Airport,65.64499664,-20.28750038,131,EU,IS,IS-5,Blönduós,no,BIBL,BLO,
BIBR,small_airport,Búðardalur Airport,65.07530212,-21.8003006,131,EU,IS,IS-3,Búðardalur,no,BIBR,BQD,
BIBV,small_airport,Breiðdalsvík Airport,64.790037,-14.043927,8,EU,IS,IS-7,Breiðdalsvík,no,BIBV,BXV,
BIDV,small_airport,Djúpivogur Airport,64.642372,-14.277297,9,EU,IS,IS-7,Djúpivogur,no,BIDV,DJU,
BIEG,medium_airport,Egilsstaðir Airport,65.28330231,-14.40139961,76,EU,IS,IS-7,Egilsstaðir,yes,BIEG,EGS,
BIFF,small_airport,Fáskrúðsfjörður Airport,64.931456,-14.047957,15,EU,IS,IS-7,Fáskrúðsfjörður,no,BIFF,FAS,
BIFM,small_airport,Fagurhólsmýri Airport,63.87469864,-16.64109993,56,EU,IS,IS-7,Fagurhólsmýri,no,BIFM,FAG,
BIGF,small_airport,Grundarfjörður Airport,64.99140167,-23.22470093,17,EU,IS,IS-3,Grundarfjörður,no,BIGF,GUU,
BIGJ,small_airport,Gjögur Airport,65.99530029,-21.32690048,83,EU,IS,IS-4,Gjögur,no,BIGJ,GJR,
BIGR,small_airport,Grímsey Airport,66.5458,-18.0173,66,EU,IS,IS-6,Grímsey,yes,BIGR,GRY,
BIHK,small_airport,Hólmavík Airport,65.70469666,-21.69639969,90,EU,IS,IS-4,Hólmavík,no,BIHK,HVK,
BIHN,medium_airport,Hornafjörður Airport,64.295601,-15.2272,24,EU,IS,IS-8,Höfn,yes,BIHN,HFN,
BIHT,small_airport,Holt Airport,66.01418043,-23.4416914,10,EU,IS,IS-4,Flateyri,no,BIHT,FLI,
BIHU,medium_airport,Húsavík Airport,65.952301,-17.426001,48,EU,IS,IS-6,Húsavík,yes,BIHU,HZK,
BIHV,small_airport,Krókstaðarmelar Airport,65.2664032,-20.84690094,164,EU,IS,IS-5,Hvammstangi,no,BIHV,HVM,
BIID,small_airport,Ingjaldssanður Airport,66.05000305,-23.69610023,70,EU,IS,IS-4,Onundarfjörður,no,BIID,HLO,
BIIS,medium_airport,Ísafjörður Airport,66.05809784,-23.13529968,8,EU,IS,IS-4,Ísafjörður,yes,BIIS,IFJ,
BIKF,large_airport,Keflavik International Airport,63.985001,-22.6056,171,EU,IS,IS-2,Reykjavík,yes,BIKF,KEF,
BIKP,small_airport,Kópasker Airport,66.31079865,-16.4666996,20,EU,IS,IS-6,Kópasker,no,BIKP,OPA,
BIKR,small_airport,Sauðárkrókur Airport,65.73169708,-19.57279968,8,EU,IS,IS-5,Sauðárkrókur,no,BIKR,SAK,
BINF,small_airport,Norðfjörður Airport,65.13189697,-13.74639988,13,EU,IS,IS-7,Norðfjörður,no,BINF,NOR,
BIOF,small_airport,Ólafsfjörður Airport,66.08329773,-18.66670036,32,EU,IS,IS-6,Ólafsfjörður,no,BIOF,OFJ,
BIPA,small_airport,Patreksfjörður Airport,65.555801,-23.965,11,EU,IS,IS-4,Patreksfjörður,no,BIPA,PFJ,
BIRE,small_airport,Reykhólar Airport,65.45262909,-22.20611572,60,EU,IS,IS-4,Reykhólar,no,BIRE,RHA,
BIRF,small_airport,Rif Airport,64.91139984,-23.82309914,18,EU,IS,IS-3,Rif,no,BIRF,OLI,
BIRG,small_airport,Raufarhöfn Airport,66.40640259,-15.91829967,39,EU,IS,IS-6,Raufarhöfn,no,BIRG,RFN,
BIRK,medium_airport,Reykjavik Airport,64.12999725,-21.94059944,48,EU,IS,IS-1,Reykjavik,yes,BIRK,RKV,
BIRL,small_airport,Reykjahlíð Airport,65.65579987,-16.91810036,1030,EU,IS,IS-6,Myvatn,no,BIRL,MVA,
BISI,medium_airport,Siglufjörður Airport,66.137847,-18.908157,10,EU,IS,IS-6,Siglufjörður,no,BISI,SIJ,
BIST,small_airport,Stykkishólmur Airport,65.05809784,-22.7942009,42,EU,IS,IS-3,Stykkishólmur,no,BIST,SYK,
BITE,small_airport,Þingeyri Airport,65.87030029,-23.55999947,65,EU,IS,IS-4,Þingeyri,no,BITE,TEY,
BITN,small_airport,Þórshöfn Airport,66.218498,-15.3356,65,EU,IS,IS-6,Þórshöfn,yes,BITN,THO,
BIVM,medium_airport,Vestmannaeyjar Airport,63.42430115,-20.27890015,326,EU,IS,IS-8,Vestmannaeyjar,no,BIVM,VEY,
BIVO,small_airport,Vopnafjörður Airport,65.72059631,-14.85060024,16,EU,IS,IS-7,Vopnafjörður,yes,BIVO,VPN,
BJE,small_airport,Baleela Airport,11.19944444,28.52305556,1690,AF,SD,SD-13,Baleela Base Camp,no,,BJE,
BJQ,small_airport,Bahja Airport,19.87305556,56.06777778,515,AS,OM,OM-WU,Bahja,no,,BJQ,
BJT,seaplane_base,Bentota River Waterdrome,6.431,79.996,,AS,LK,LK-1,Bentota,yes,,BJT,
BKPR,medium_airport,Priština Adem Jashari International Airport,42.5728,21.035801,1789,EU,XK,XK-01,Prishtina,yes,BKPR,PRN,
BMH,small_airport,Bomai Airport,-6.373166667,144.637,3300,OC,PG,PG-CPK,Bomai,no,AYBO,BMH,BOM
BMQ,small_airport,Bamburi Airport,-3.983363,39.730982,52,AF,KE,KE-300,Bamburi,yes,HKBM,BMQ,
BMZ,small_airport,Bamu Airport,-7.8485,143.2433,50,OC,PG,PG-WPD,Bamu,no,AYBF,BMZ,BAMU
BNF,seaplane_base,Baranof Warm Springs Float and Seaplane Base,57.088799,-134.833146,0,NA,US,US-AK,Baranof,no,,BNF,BNF
BNM,small_airport,Bodinumu Airport,-9.107777778,147.6667222,3700,OC,PG,PG-CPM,Bodinumu,no,AYBD,BNM,BNU
BNT,small_airport,Bundi Airport,-5.742222222,145.2275,4400,OC,PG,PG-MPM,Bundi,no,AYDI,BNT,BDI
BO-0001,small_airport,Rurenabaque Airport,-14.42790031,-67.49680328,676,SA,BO,BO-B,Rurenabaque,no,SLRQ,RBQ,
BO-BVL,small_airport,Baures Airport,-13.58333302,-63.58333206,470,SA,BO,BO-B,Baures,no,SLBA,BVL,
BOK,small_airport,Brookings Airport,42.0746,-124.290001,459,NA,US,US-OR,Brookings,no,KBOK,BOK,BOK
BOT,small_airport,Bosset Airport,-7.237257,141.1063222,80,OC,PG,PG-WPD,Bosset,yes,AYET,BOT,BST
BOV,small_airport,Boang Airport,-3.3834,153.2812,85,OC,PG,PG-NIK,Boang Island,no,,BOV,BOG
BPF,small_airport,Batuna Aerodrome,-8.562027778,158.1193056,24,OC,SB,SB-WE,Batuna Mission Station,no,AGBT,BPF,
BQV,seaplane_base,Bartlett Cove Seaplane Base,58.4552002,-135.8849945,0,NA,US,US-AK,Gustavus,no,BQV,BQV,BQV
BR-0569,medium_airport,Glauber de Andrade Rocha Airport,-14.907885,-40.914804,2940,SA,BR,BR-BA,Vitória da Conquista,yes,SBVC,VDC,BA0005
BR-ALT,small_airport,Alenquer Municipal Airport,-1.917,-54.7231,55,SA,BR,BR-PA,Alenquer,no,SDWQ,ALT,PA0027
BS-NSB,seaplane_base,Bimini North Seaplane Base,25.7670002,-79.25,,NA,BS,BS-BI,Bimini,yes,,NSB,
BSP,small_airport,Bensbach Airport,-8.858055556,141.2594444,30,OC,PG,PG-WPD,Bensbach,no,AYBH,BSP,BEN
BSV,small_airport,Besakoa Airport,-15.6725,47.06166667,40,AF,MG,MG-M,Besakoa,no,,BSV,
BUL,small_airport,Bulolo Airport,-7.216286671,146.6495419,2240,OC,PG,PG-MPL,Bulolo,no,AYBU,BUL,BUO
BVR,small_airport,Esperadinha Airport,14.86430556,-24.746,64,AF,CV,CV-S,Brava Island,no,GVBR,BVR,
BW-HUK,small_airport,Hukuntsi Airport,-23.9897,21.758101,3720,AF,BW,BW-KG,Hukuntsi,no,FBHK,HUK,
BWJ,small_airport,Bawan Airport,-6.396944444,146.8816667,4700,OC,PG,PG-MPL,,no,,BWJ,BWN
BWP,small_airport,Bewani Airport,-3.021666667,141.1652778,550,OC,PG,PG-SAN,Bewani,no,AYBI,BWP,BEW
BXL,seaplane_base,Blue Lagoon Seaplane Base,-16.943,177.368,0,OC,FJ,FJ-W,Nanuya Lailai Island,no,,BXL,
BXZ,small_airport,Bunsil Airport,-5.7243,147.8667,201,OC,PG,PG-MPL,Bunsil - Umboi Island,no,AYNS,BXZ,BSL
BY-0001,medium_airport,Orsha Airport - Balbasovo Air Base,54.439999,30.2967,620,EU,BY,BY-VI,Orsha,no,UMIO,TXC,
BYA,small_airport,Boundary Airport,64.07830048,-141.1130066,2940,NA,US,US-AK,Boundary,no,BYA,BYA,BYA
BYL,small_airport,Bella Yella Airport,7.369166667,-9.993722222,690,AF,LR,LR-LO,Beliyela,no,,BYL,
BYV,seaplane_base,Beira Lake Seaplane Base,6.929444444,79.85416667,17,AS,LK,LK-1,Colombo,no,,BYV,
BZ-BCV,small_airport,Hector Silva Airstrip,17.269603,-88.776496,150,NA,BZ,BZ-CY,Belmopan,yes,MZBP,BCV,
BZ-BGK,medium_airport,Big Creek Airport,16.519369,-88.407913,22,NA,BZ,BZ-SC,Big Creek,yes,MZBG,BGK,
BZ-CUK,medium_airport,Caye Caulker Airport,17.735015,-88.032862,2,NA,BZ,BZ-BZ,Caye Caulker,yes,MZCK,CUK,
BZ-CYC,medium_airport,Caye Chapel Airport,17.683792,-88.044985,3,NA,BZ,BZ-BZ,Caye Chapel,yes,MZCP,CYC,
BZ-CZH,medium_airport,Corozal Municipal Airport,18.38220024,-88.41190338,40,NA,BZ,BZ-CZL,Corozal,yes,,CZH,
BZ-DGA,medium_airport,Dangriga Airport,16.98250961,-88.23098755,508,NA,BZ,BZ-SC,Dangriga,yes,,DGA,
BZ-INB,small_airport,Independence Airport,16.5345,-88.441299,18,NA,BZ,BZ-SC,Independence,no,MZSV,INB,
BZ-MDB,small_airport,Melinda Airport,17.00429916,-88.30419922,101,NA,BZ,BZ-SC,Melinda,no,,MDB,
BZ-ORZ,small_airport,Orange Walk Airport,18.04676628,-88.58386993,111,NA,BZ,BZ-OW,Orange Walk,no,,ORZ,
BZ-PLJ,medium_airport,Placencia Airport,16.53695679,-88.36151123,3,NA,BZ,BZ-SC,Placencia,yes,,PLJ,
BZ-PND,medium_airport,Punta Gorda Airport,16.10239983,-88.8082962,7,NA,BZ,BZ-TOL,Punta Gorda,yes,,PND,
BZ-SJX,medium_airport,Sartaneja Airport,18.35610008,-88.13079834,3,NA,BZ,BZ-CZL,Sartaneja,yes,,SJX,
BZ-SPR,medium_airport,John Greif II Airport,17.9139,-87.9711,4,NA,BZ,BZ-CY,San Pedro,yes,MZSP,SPR,
BZ-SQS,small_airport,Matthew Spain Airport,17.1859,-89.0098,199,NA,BZ,BZ-CY,San Ignacio,no,MZCF,SQS,
BZ-STU,small_airport,Santa Cruz Airport,18.27210045,-88.45629883,18,NA,BZ,BZ-CZL,Santa Cruz,no,,STU,
BZ-SVK,small_airport,Silver Creek Airport,16.728338,-88.369174,216,NA,BZ,BZ-SC,Silver Creek,no,MZKT,SVK,
BZ-TZA,medium_airport,Sir Barry Bowen Municipal Airport,17.51639,-88.194443,8,NA,BZ,BZ-BZ,Belize City,yes,MZBE,TZA,
BZB,medium_airport,Bazaruto Island Airport,-21.5411,35.4729,,AF,MZ,MZ-I,Bazaruto Island,no,,BZB,
BZM,small_airport,Bemolanga Airport,-17.6925,45.08883333,950,AF,MG,MG-M,Bemolanga,no,,BZM,
CA-0446,small_airport,Stuart Island Airstrip,50.40944743,-125.1316166,360,NA,CA,CA-BC,Big Bay,no,,YRR,
CA-0504,small_airport,Mary River Aerodrome,71.324167,-79.356944,584,NA,CA,CA-NU,Mary River,no,,YMV,CMR2
CAB3,seaplane_base,Bedwell Harbour Seaplane Base,48.75,-123.2330017,0,NA,CA,CA-BC,Bedwell Harbour,yes,CAB3,YBW,CAB3
CAB4,seaplane_base,Tofino Harbour Seaplane Base,49.155,-125.91,0,NA,CA,CA-BC,Tofino Harbour,no,CAB4,YTP,CAB4
CAC8,seaplane_base,Nanaimo Harbour Water Airport,49.169813,-123.933845,,NA,CA,CA-BC,Nanaimo,yes,CAC8,ZNA,CAC8
CAD4,small_airport,Trail Airport,49.05559921,-117.6090012,1427,NA,CA,CA-BC,Trail,no,CAD4,YZZ,CAD4
CAD5,small_airport,Merritt Airport,50.12279892,-120.7470016,2080,NA,CA,CA-BC,Merritt,no,CAD5,YMB,CAD5
CAE3,seaplane_base,Campbell River Seaplane Base,50.049999,-125.25,,NA,CA,CA-BC,Campbell River,no,CAE3,YHH,CAE3
CAE5,seaplane_base,Whistler/Green Lake Water Aerodrome,50.14360046,-122.9489975,2100,NA,CA,CA-BC,Whistler,yes,CAE5,YWS,CAE5
CAE9,seaplane_base,Bamfield Seaplane Base,48.83330154,-125.1330032,0,NA,CA,CA-BC,Bamfield,no,CAE9,YBF,CAE9
CAF6,seaplane_base,Big Bay Seaplane Base,50.3923,-125.1372,,NA,CA,CA-BC,Stuart Island,no,CAF6,YIG,CAF6
CAG3,small_airport,Chilko Lake (Tsylos Park Lodge) Airport,51.625797,-124.144478,3850,NA,CA,CA-BC,Chilko Lake,no,CAG3,CJH,CAG3
CAG8,seaplane_base,Pender Harbour Seaplane Base,49.623785,-124.024884,,NA,CA,CA-BC,Sunshine Coast,no,CAG8,YPT,CAG8
CAH2,seaplane_base,Ocean Falls Seaplane Base,52.36669922,-127.7170029,0,NA,CA,CA-BC,Ocean Falls,no,CAH2,ZOF,CAH2
CAH3,small_airport,Courtenay Airpark,49.6794014,-124.9820023,26,NA,CA,CA-BC,Courtenay,no,CAH3,YCA,CAH3
CAJ3,small_airport,Creston Valley Regional Airport - Art Sutcliffe Field,49.03689957,-116.4980011,2070,NA,CA,CA-BC,Creston,no,CAJ3,CFQ,CAJ3
CAJ4,small_airport,Anahim Lake Airport,52.451501,-125.303776,3635,NA,CA,CA-BC,Anahim Lake,yes,CAJ4,YAA,CAJ4
CAL3,small_airport,Douglas Lake Airport,50.16546005,-120.1712734,2770,NA,CA,CA-BC,Douglas Lake,no,CAL3,DGF,CAL3
CAL4,small_airport,Fort MacKay/Albian Aerodrome,57.22389984,-111.4189987,1048,NA,CA,CA-AB,Albian Village,no,CAL4,JHL,CAL4
CAL9,seaplane_base,Tahsis Seaplane Base,49.91669846,-126.6669998,0,NA,CA,CA-BC,Tahsis,no,CAL9,ZTS,CAL9
CAM3,small_airport,Duncan Airport,48.754534,-123.709702,300,NA,CA,CA-BC,Duncan,no,CAM3,DUQ,CAM3
CAP3,small_airport,Sechelt-Gibsons Airport,49.46060181,-123.7190018,340,NA,CA,CA-BC,Sechelt,no,CAP3,YHS,CAP3
CAP7,seaplane_base,Kitkatla Seaplane Base,53.79999924,-130.4329987,,NA,CA,CA-BC,Kitkatla,no,CAP7,YKK,CAP7
CAQ8,seaplane_base,Powell Lake Seaplane Base,49.88330078,-124.5329971,183,NA,CA,CA-BC,,no,CAQ8,WPL,CAQ8
CAT4,small_airport,Qualicum Beach Airport,49.3372,-124.393997,191,NA,CA,CA-BC,Qualicum Beach,no,CAT4,XQU,CAT4
CAT5,small_airport,Port Mcneill Airport,50.57559967,-127.0289993,225,NA,CA,CA-BC,Port Mcneill,no,CAT5,YMP,CAT5
CAU8,seaplane_base,Rivers Inlet Seaplane Base,51.683985,-127.264044,0,NA,CA,CA-BC,Rivers Inlet,no,CAU8,YRN,CAU8
CAV5,seaplane_base,Sullivan Bay Seaplane Base,50.885359,-126.831069,0,NA,CA,CA-BC,Sullivan Bay,no,CAV5,YTG,CAV5
CAV7,seaplane_base,Mansons Landing Seaplane Base,50.06669998,-124.9830017,,NA,CA,CA-BC,,no,CAV7,YMU,CAV7
CAW8,seaplane_base,Bella Bella/Shearwater Seaplane Base,52.150002,-128.08299,0,NA,CA,CA-BC,Bella Bella,no,CAW8,YSX,CAW8
CAX6,seaplane_base,Ganges Seaplane Base,48.8545,-123.4969,0,NA,CA,CA-BC,Salt Spring Island,yes,CAX6,YGG,CAX6
CAY4,seaplane_base,Hartley Bay Seaplane Base,53.416698,-129.25,0,NA,CA,CA-BC,Hartley Bay,no,CAY4,YTB,CAY4
CAZ5,small_airport,Cache Creek-Ashcroft Regional Airport,50.775258,-121.321314,2034,NA,CA,CA-BC,Cache Creek,no,CAZ5,YZA,CAZ5
CBBC,small_airport,Bella Bella (Campbell Island) Airport,52.185001,-128.156994,141,NA,CA,CA-BC,Bella Bella,yes,CBBC,ZEL,CBBC
CBC,small_airport,Cherrabun Airport,-18.91777778,125.5377778,540,OC,AU,AU-WA,,no,,CBC,
CBS8,small_airport,Alberni Valley Regional Airport,49.321899,-124.931,250,NA,CA,CA-BC,Port Alberni,no,CBS8,YPB,CBS8
CBW4,small_airport,Bob Quinn Lake Airport,56.96670151,-130.25,2000,NA,CA,CA-BC,Bob Quinn Lake,no,CBW4,YBO,CBW4
CBX5,small_airport,Tungsten (Cantung) Airport,61.95690155,-128.2030029,3500,NA,CA,CA-NT,Tungsten,no,CBX5,TNS,CBX5
CBX7,small_airport,Tumbler Ridge Airport,55.02500153,-120.9349976,3075,NA,CA,CA-BC,Tumbler Ridge,no,CBX7,TUX,CBX7
CCA6,small_airport,Williams Harbour Airport,52.56689835,-55.78469849,70,NA,CA,CA-NL,Williams Harbour,yes,CCA6,YWM,CCA6
CCD4,small_airport,Postville Airport,54.9105,-59.78507,193,NA,CA,CA-NL,Postville,yes,CCD4,YSO,CCD4
CCE4,small_airport,Black Tickle Airport,53.4693985,-55.78499985,57,NA,CA,CA-NL,Black Tickle,no,CCE4,YBI,CCE4
CCK4,small_airport,St. Lewis (Fox Harbour) Airport,52.37279892,-55.6739006,74,NA,CA,CA-NL,St. Lewis,yes,CCK4,YFX,CCK4
CCP4,small_airport,Port Hope Simpson Airport,52.52809906,-56.28609848,347,NA,CA,CA-NL,Port Hope Simpson,yes,CCP4,YHA,CCP4
CCZ2,small_airport,Rigolet Airport,54.17969894,-58.45750046,180,NA,CA,CA-NL,Rigolet,yes,CCZ2,YRG,CCZ2
CDK2,small_airport,Diavik Airport,64.51139832,-110.2890015,1413,NA,CA,CA-NT,Diavik,no,CDK2,DVK,CDK2
CDL7,small_airport,Doris Lake,68.12527466,-106.5852814,50,NA,CA,CA-NU,Hope Bay,no,,JOJ,CDL7
CEB5,small_airport,Fairview Airport,56.08140183,-118.4349976,2166,NA,CA,CA-AB,Fairview,no,CEB5,ZFW,CEB5
CEC4,small_airport,Hinton/Jasper-Hinton Airport,53.31919861,-117.7529984,4006,NA,CA,CA-AB,Hinton,no,CEC4,YJP,CEC4
CEM3,small_airport,Whatì Airport,63.13169861,-117.2460022,882,NA,CA,CA-NT,Whatì,yes,CEM3,YLE,CEM3
CER3,small_airport,Drayton Valley Industrial Airport,53.26580048,-114.9599991,2776,NA,CA,CA-AB,Drayton Valley,no,CER3,YDC,CER3
CER4,small_airport,Fort McMurray / Mildred Lake Airport,57.05559921,-111.5739975,1046,NA,CA,CA-AB,Fort McMurray,no,CER4,NML,CER4
CET2,small_airport,Conklin (Leismer) Airport,55.695301,-111.278999,1930,NA,CA,CA-AB,Conklin,no,CET2,CFM,CET2
CEW3,small_airport,St. Paul Airport,53.99330139,-111.3799973,2147,NA,CA,CA-AB,St. Paul,no,CEW3,ZSP,CEW3
CFA7,small_airport,Taltheilei Narrows Airport,62.59809875,-111.5429993,570,NA,CA,CA-NT,Taltheilei Narrows,no,CFA7,GSL,CFA7
CFC4,small_airport,Macmillan Pass Airport,63.18109894,-130.2019959,3810,NA,CA,CA-YT,Macmillan Pass,no,CFC4,XMP,CFC4
CFF4,small_airport,Great Bear Lake Airport,66.70310211,-119.7070007,562,NA,CA,CA-NT,Great Bear Lake,no,CFF4,DAS,CFF4
CFG6,small_airport,Fort Mackay / Firebag,57.275833,-110.976666,1762,NA,CA,CA-AB,Suncor Energy Site,no,CYFI,YFI,CYFI
CFJ2,small_airport,Wekweètì Airport,64.190804,-114.077002,1208,NA,CA,CA-NT,Wekweètì,yes,CYWE,YFJ,CFJ7
CFM4,small_airport,Donnelly Airport,55.7094,-117.094002,1949,NA,CA,CA-AB,Donnelly,no,CFM4,YOE,CFM4
CFQ4,small_airport,Cheadle Airport,51.05749893,-113.6240005,3300,NA,CA,CA-AB,Cheadle,no,CFQ4,TIL,CFQ4
CG-OKG,small_airport,Okoyo Airport,-1.448330045,15.07330036,1415,AF,CG,CG-8,Okoyo,no,,OKG,
CGA,seaplane_base,Craig Seaplane Base,55.47880173,-133.147995,,NA,US,US-AK,Craig,no,CGA,CGA,CGA
CGC,small_airport,Cape Gloucester Airport,-5.458965,148.432417,78,OC,PG,PG-WBK,Cape Gloucester,no,AYCG,CGC,CPG
CGG,small_airport,Casiguran Airport,16.1941,122.0651,48,AS,PH,PH-AUR,Casiguran,no,,CGG,
CGK2,small_airport,Gahcho Kue,63.435198,-109.144812,1371,NA,CA,CA-NT,,no,CGK2,GHK,CGK2
CHP,small_airport,Circle Hot Springs Airport,65.48549652,-144.6109924,956,NA,US,US-AK,Circle Hot Springs,no,CHP,CHP,CHP
CIV,seaplane_base,Chomley Seaplane Base,55.217,-132.21,0,NA,US,US-AK,Chomley,no,,CIV,
CJC8,small_airport,Laurie River Airport,56.24860001,-101.3040009,1200,NA,CA,CA-MB,Laurie River,no,CJC8,LRQ,CJC8
CJL2,small_airport,Hatchet Lake Airport,58.66249847,-103.538002,1362,NA,CA,CA-SK,Hatchet Lake,no,CJL2,YDJ,CJL2
CJL8,small_airport,Kasba Lake Airport,60.29190063,-102.5019989,1131,NA,CA,CA-NT,Kasba Lake,no,CJL8,YDU,CJL8
CJN8,seaplane_base,Fort Reliance Seaplane Base,62.7,-109.167,514,NA,CA,CA-NT,Fort Reliance,no,CJN8,YFL,CJN8
CJS3,small_airport,Cluff Lake Airport,58.39110184,-109.5159988,1112,NA,CA,CA-SK,Cluff Lake,no,CJS3,XCL,CJS3
CJT3,small_airport,Knee Lake Airport,54.915298,-94.798103,625,NA,CA,CA-MB,Knee Lake,no,CJT3,YKE,CJT3
CJV7,small_airport,Summer Beaver Airport,52.70859909,-88.54190063,832,NA,CA,CA-ON,Summer Beaver,yes,CJV7,SUR,CJV7
CJX,small_airport,Crooked Creek Airport,61.86790085,-158.1349945,178,NA,US,US-AK,Crooked Creek,no,CJX,CKD,CJX
CJY3,small_airport,Tisdale Airport,52.83670044,-104.0670013,1525,NA,CA,CA-SK,Tisdale,no,CJY3,YTT,CJY3
CKB6,small_airport,Wapekeka Airport,53.8492012,-89.57939911,712,NA,CA,CA-ON,Angling Lake,yes,CKB6,YAX,CKB6
CKL3,small_airport,Wunnumin Lake Airport,52.89390182,-89.28919983,819,NA,CA,CA-ON,Wunnumin Lake,yes,CKL3,WNN,CKL3
CKM8,small_airport,Opapimiskan Lake Airport,52.6067009,-90.37689972,1023,NA,CA,CA-ON,Opapimiskan Lake,no,CKM8,YBS,CKM8
CKQ3,small_airport,North Spirit Lake Airport,52.49000168,-92.97109985,1082,NA,CA,CA-ON,North Spirit Lake,yes,CKQ3,YNO,CKQ3
CKR,small_airport,Crane Island Airstrip,48.5978,-122.9979,108,NA,US,US-WA,Crane Island,no,,CKR,
CKU,small_airport,Cordova Municipal Airport,60.54389954,-145.727005,12,NA,US,US-AK,Cordova,no,CKU,CKU,CKU
CKV4,small_airport,North of Sixty Airport,60.31639862,-103.1289978,1195,NA,CA,CA-NT,Obre Lake,no,CKV4,YDW,CKV4
CKX,small_airport,Chicken Airport,64.07129669,-141.9519959,1640,NA,US,US-AK,Chicken,no,CKX,CKX,CKX
CMT,small_airport,New Cametá Airport,-2.2468,-49.56,60,SA,BR,BR-PA,Cametá,no,,CMT,
CMZ,small_airport,Caia Airport,-17.8331,35.3341,156,AF,MZ,MZ-S,Caia,no,,CMZ,
CN-0005,small_airport,Tangshan Sannühe Airport,39.71780014,118.0026245,50,AS,CN,CN-13,Tangshan,yes,ZBTS,TVS,
CN-0012,medium_airport,Yuanmou Air Base,25.73749924,101.8820038,3810,AS,CN,CN-53,Yuanmou,no,ZPYM,YUA,
CN-0024,medium_airport,Zhangjiakou Ningyuan Airport,40.73860168,114.9300003,2347,AS,CN,CN-13,Zhangjiakou,yes,ZBZJ,ZQZ,
CN-0027,medium_airport,Baoshan Yunrui Airport,25.053301,99.168297,5453,AS,CN,CN-53,Baoshan,yes,ZPBS,BSD,
CN-0034,small_airport,Dazu Air Base,29.636227,105.773621,1220,AS,CN,CN-50,Dazu,no,ZUDZ,DZU,
CN-0040,medium_airport,Lincang Boshang Airport,23.7381,100.025002,6230,AS,CN,CN-53,Lincang,yes,ZPLC,LNJ,
CN-0046,medium_airport,Xigaze Peace Airport / Shigatse Air Base,29.3519,89.311401,3782,AS,CN,CN-54,Xigazê,yes,ZURK,RKZ,
CN-0050,medium_airport,Bao'anying Airport,26.54,101.79852,1620,AS,CN,CN-51,Panzhihua,yes,ZUZH,PZI,
CN-0051,small_airport,Zigong Fengming Airport,29.376484,104.625789,1133,AS,CN,CN-51,Zigong,no,,ZKL,
CN-0061,medium_airport,Foshan Shadi Airport,23.0833,113.07,6,AS,CN,CN-44,Foshan (Nanhai),yes,ZGFS,FUO,
CN-0062,small_airport,Bazhong Enyang Airport,31.73842,106.644872,1804,AS,CN,CN-51,Bazhong,yes,ZUBZ,BZX,BZX
CN-0067,medium_airport,Xinyang Minggang Airport,32.540819,114.079141,312,AS,CN,CN-41,Xinyang,yes,ZHXY,XAI,
CN-0068,medium_airport,Huizhou Pingtan Airport,23.049999,114.599998,50,AS,CN,CN-44,Huizhou (Pingtan),yes,ZGHZ,HUZ,
CN-0073,small_airport,Shangluo Airport,33.708533,110.249284,,AS,CN,CN-61,Danfeng,no,,DFA,
CN-0079,medium_airport,Shaoguan Guitou Airport,24.9786,113.420998,280,AS,CN,CN-44,Ruyuan Yao Autonomous County (Shaoguan),no,,HSC,
CN-0081,medium_airport,Jinggangshan Airport,26.856899,114.737,281,AS,CN,CN-36,Ji'an,yes,ZSJA,JGS,
CN-0082,medium_airport,Baise Youjiang Airport,23.7206,106.959999,490,AS,CN,CN-45,Baise (Tianyang),yes,ZGBS,AEB,
CN-0091,medium_airport,Dongying Shengli Airport,37.50859833,118.788002,15,AS,CN,CN-37,Dongying,no,ZSDY,DOY,
CN-0104,medium_airport,Xingcheng Air Base,40.580328,120.700374,30,AS,CN,CN-21,"Xingcheng, Huludao",no,ZYXC,XEN,
CN-0113,medium_airport,Altay Airport,47.749886,88.085808,2460,AS,CN,CN-65,Altay,yes,ZWAT,AAT,
CN-0130,medium_airport,Tianshui Maijishan Airport,34.559399,105.860001,3590,AS,CN,CN-62,Tianshui,yes,ZLTS,THQ,
CN-0143,small_airport,Zhangye Ganzhou Airport,38.801899,100.675003,5280,AS,CN,CN-62,Zhangye,yes,ZLZY,YZY,
CN-0157,small_airport,Morin Dawa Banner Airport,48.38745,124.43127,722,AS,CN,CN-15,Hulunbuir,no,,DWS,
CN-0177,small_airport,Shijiazhuang Luancheng Airport,37.91305,114.59166,197,AS,CN,CN-13,Shijiazhuang,no,,LCT,
CN-0188,medium_airport,Beijing Nanjiao Airport,39.48595,116.37236,,AS,CN,CN-11,Beijing,no,ZBNY,NAY,
CN-0189,medium_airport,Dandong Langtou Airport,40.0247,124.286003,30,AS,CN,CN-21,"Zhenxing, Dandong",yes,ZYDD,DDG,
CN-0253,small_airport,Jiande Qiandaohu General Airport,29.360905,119.180829,249,AS,CN,CN-33,Hangzhou,no,,JDE,
CN-0268,small_airport,Zhaodong Beidahuang General Airport,46.12779,125.77354,469,AS,CN,CN-23,Suihua,no,,HLJ,
CN-0300,small_airport,Taiyuan Yaocheng Airport,37.50312,112.424126,,AS,CN,CN-14,Taiyuan,no,,TYC,
CN-NTG,small_airport,Nantong Airport,32.07080078,120.9759979,16,AS,CN,CN-32,Nantong,yes,ZSNT,NTG,
CNE3,small_airport,Bearskin Lake Airport,53.96559906,-91.02719879,800,NA,CA,CA-ON,Bearskin Lake,yes,CNE3,XBE,CNE3
CNH2,small_airport,Natuashish Airport,55.913898,-61.184399,30,NA,CA,CA-NL,Natuashish,yes,CNH2,YNP,CNH2
CNJ8,seaplane_base,White River Seaplane Base,48.6269,-85.223297,1380,NA,CA,CA-ON,White River,no,CNJ8,YWR,CNJ8
CNK4,small_airport,Parry Sound Area Municipal Airport,45.2575,-79.829697,832,NA,CA,CA-ON,Parry Sound,no,CNK4,YPD,CNK4
CNL3,small_airport,Brockville - Thousand Islands Regional Tackaberry Airport,44.63940048,-75.75029755,402,NA,CA,CA-ON,Brockville,no,CNL3,XBR,CNL3
CNM5,small_airport,Kingfisher Lake Airport,53.01250076,-89.8553009,866,NA,CA,CA-ON,Kingfisher Lake,yes,CNM5,KIF,CNM5
CNT3,small_airport,Ogoki Post Airport,51.65859985,-85.90170288,594,NA,CA,CA-ON,Ogoki Post,yes,CYKP,YOG,CYKP
CO-ARQ,small_airport,El Troncal Airport,7.02106,-71.388901,512,SA,CO,CO-ARA,Arauquita,no,SKAT,ARQ,
CO-LCR,small_airport,La Chorrera Airport,-0.733333,-73.01667,709,SA,CO,CO-AMA,La Chorrera,yes,,LCR,
CO-SNT,small_airport,Las Cruces Airport,7.38322,-73.505402,440,SA,CO,CO-SAN,Sabana De Torres,no,,SNT,
CO-TCD,small_airport,Tarapacá Airport,-2.894722,-69.747222,253,SA,CO,CO-AMA,Tarapacá,yes,SKRA,TCD,
CPF2,small_airport,Bar River Airport,46.42029953,-84.09220123,591,NA,CA,CA-ON,Bar River,no,CPF2,YEB,CPF2
CPI,small_airport,Cape Orford Airport,-5.448333333,152.0819444,20,OC,PG,PG-EBR,,no,,CPI,COF
CPS9,seaplane_base,Parry Sound/Frying Pan Island-Sans Souci Seaplane Base,45.173302,-80.137497,580,NA,CA,CA-ON,Frying Pan Island,no,CPS9,YSI,CPS9
CPV7,small_airport,Poplar Hill Airport,52.1133,-94.2556,1095,NA,CA,CA-ON,Poplar Hill,yes,CYHP,YHP,CPV7
CPV8,small_airport,Keewaywin Airport,52.99110031,-92.83640289,988,NA,CA,CA-ON,Keewaywin,no,CPV8,KEW,CPV8
CRL4,small_airport,Kirby Lake Airport,55.355598,-110.637001,2260,NA,CA,CA-AB,Kirby Lake,no,CRL4,KFM,CRL4
CSB2,small_airport,Sable Island Landing Strip,43.930951,-59.996147,4,NA,CA,CA-NS,Sable Island,no,CSB2,YSA,CSB2
CSH4,small_airport,Lebel-sur-Quevillon Airport,49.03030014,-77.01719666,960,NA,CA,CA-QC,Lebel-sur-Quévillon,no,CSH4,YLS,CSH4
CSK6,small_airport,Snap Lake Airport,63.593601,-110.905998,1557,NA,CA,CA-NT,Snap Lake Mine,no,CSK6,YNX,CSK6
CSR8,small_airport,La Sarre Airport,48.91719818,-79.1785965,1048,NA,CA,CA-QC,La Sarre,no,CSR8,SSQ,CSR8
CSU2,small_airport,Chisasibi Airport,53.80559921,-78.91690063,43,NA,CA,CA-QC,Chisasibi,yes,CSU2,YKU,CSU2
CTB6,small_airport,Tête-à-la-Baleine Airport,50.67440033,-59.38359833,107,NA,CA,CA-QC,Tête-à-la-Baleine,yes,CTB6,ZTB,CTB6
CTK6,small_airport,Kegaska Airport,50.19580078,-61.26580048,32,NA,CA,CA-QC,Kegaska,no,CTK6,ZKG,CTK6
CTM3,seaplane_base,Chute-Des-Passes/Lac Margane Seaplane Base,49.9434,-71.138,1310,NA,CA,CA-QC,Chutes-des-Passes,no,CTM3,YWQ,CTM3
CTP,small_airport,Carutapera Airport,-1.225365,-46.019057,85,SA,BR,BR-MA,Carutapera,no,,CTP,
CTP9,small_airport,Donaldson Airport,61.66220093,-73.3214035,1902,NA,CA,CA-QC,Kattiniq,no,CTP9,YAU,CTP9
CTR7,seaplane_base,Ottawa / Rockcliffe Seaplane Base,45.46383295,-75.64254284,,NA,CA,CA-ON,Ottawa,no,CTR7,TR7,CTR7
CTT5,small_airport,La Romaine Airport,50.259701,-60.679401,90,NA,CA,CA-QC,La Romaine,no,CTT5,ZGS,CTT5
CTU2,small_airport,Fontanges Airport,54.55390167,-71.1733017,1550,NA,CA,CA-QC,Fontanges,no,CTU2,YFG,CTU2
CTU5,small_airport,La Tabatière Airport,50.8307991,-58.9756012,102,NA,CA,CA-QC,La Tabatière,yes,CTU5,ZLT,CTU5
CUJ,small_airport,Culion Airport,11.8553,119.9378,155,AS,PH,PH-PLW,Culion Island,no,,CUJ,
CVH,small_airport,Hollister Municipal Airport,36.8932991,-121.4100037,230,NA,US,US-CA,Hollister,no,KCVH,HLI,CVH
CVL,small_airport,Cape Vogel Airport,-9.67,150.0197222,20,OC,PG,PG-MBA,,no,,CVL,CVG
CXC,small_airport,Chitina Airport,61.582901,-144.427002,556,NA,US,US-AK,Chitina,no,CXC,CXC,CXC
CY-0002,medium_airport,Lefkoniko Airport / Geçitkale Air Base,35.235947,33.724358,146,AS,CY,CY-03,Geçitkale,yes,LCGK,GEC,
CYAB,small_airport,Arctic Bay Airport,73.006101,-85.04616,72,NA,CA,CA-NU,Arctic Bay,yes,CYAB,YAB,
CYAC,medium_airport,Cat Lake Airport,51.72719955,-91.82440186,1344,NA,CA,CA-ON,Cat Lake,yes,CYAC,YAC,
CYAD,small_airport,La Grande-3 Airport,53.57170105,-76.1964035,775,NA,CA,CA-QC,La Grande-3,no,CYAD,YAR,YAD
CYAG,medium_airport,Fort Frances Municipal Airport,48.65420151,-93.43969727,1125,NA,CA,CA-ON,Fort Frances,yes,CYAG,YAG,
CYAH,medium_airport,La Grande-4 Airport,53.75469971,-73.6753006,1005,NA,CA,CA-QC,La Grande-4,no,CYAH,YAH,
CYAL,medium_airport,Alert Bay Airport,50.5821991,-126.9160004,240,NA,CA,CA-BC,Alert Bay,no,CYAL,YAL,
CYAM,medium_airport,Sault Ste Marie Airport,46.485001,-84.509399,630,NA,CA,CA-ON,Sault Ste Marie,yes,CYAM,YAM,
CYAQ,medium_airport,Kasabonika Airport,53.52470016,-88.64279938,672,NA,CA,CA-ON,Kasabonika,yes,CYAQ,XKS,
CYAS,medium_airport,Kangirsuk Airport,60.02719879,-69.99919891,403,NA,CA,CA-QC,Kangirsuk,yes,CYAS,YKG,
CYAT,medium_airport,Attawapiskat Airport,52.92750168,-82.43190002,31,NA,CA,CA-ON,Attawapiskat,yes,CYAT,YAT,
CYAY,medium_airport,St. Anthony Airport,51.39189911,-56.08309937,108,NA,CA,CA-NL,St. Anthony,yes,CYAY,YAY,
CYAZ,medium_airport,Tofino / Long Beach Airport,49.079833,-125.775583,80,NA,CA,CA-BC,Tofino,yes,CYAZ,YAZ,
CYBA,small_airport,Banff Airport,51.208222,-115.540624,4583,NA,CA,CA-AB,Banff,no,CYBA,YBA,
CYBB,medium_airport,Kugaaruk Airport,68.534401,-89.808098,56,NA,CA,CA-NU,Kugaaruk,yes,CYBB,YBB,
CYBC,medium_airport,Baie-Comeau Airport,49.1325,-68.204399,71,NA,CA,CA-QC,Baie-Comeau,yes,CYBC,YBC,YBC
CYBD,medium_airport,Bella Coola Airport,52.387501,-126.596001,117,NA,CA,CA-BC,Bella Coola,yes,CYBD,QBC,
CYBE,medium_airport,Uranium City Airport,59.56140137,-108.4810028,1044,NA,CA,CA-SK,Uranium City,yes,CYBE,YBE,
CYBF,medium_airport,Bonnyville Airport,54.304199,-110.744003,1836,NA,CA,CA-AB,Bonnyville,yes,CYBF,YBY,
CYBG,medium_airport,CFB Bagotville,48.33060074,-70.99639893,522,NA,CA,CA-QC,Bagotville,yes,CYBG,YBG,
CYBK,medium_airport,Baker Lake Airport,64.29889679,-96.07779694,59,NA,CA,CA-NU,Baker Lake,yes,CYBK,YBK,
CYBL,medium_airport,Campbell River Airport,49.950802,-125.271004,346,NA,CA,CA-BC,Campbell River,yes,CYBL,YBL,YBL
CYBQ,medium_airport,Tadoule Lake Airport,58.7061,-98.512199,923,NA,CA,CA-MB,Tadoule Lake,yes,CYBQ,XTL,
CYBR,medium_airport,Brandon Municipal Airport,49.91,-99.951897,1343,NA,CA,CA-MB,Brandon,yes,CYBR,YBR,
CYBT,medium_airport,Brochet Airport,57.8894,-101.679001,1136,NA,CA,CA-MB,Brochet,yes,CYBT,YBT,
CYBV,medium_airport,Berens River Airport,52.358898,-97.018303,728,NA,CA,CA-MB,Berens River,yes,CYBV,YBV,
CYBX,medium_airport,Lourdes-de-Blanc-Sablon Airport,51.4436,-57.185299,121,NA,CA,CA-QC,Lourdes-de-Blanc-Sablon,yes,CYBX,YBX,
CYCA,medium_airport,Cartwright Airport,53.68280029,-57.04190063,40,NA,CA,CA-NL,Cartwright,yes,CYCA,YRF,
CYCB,medium_airport,Cambridge Bay Airport,69.10810089,-105.1380005,90,NA,CA,CA-NU,Cambridge Bay,yes,CYCB,YCB,
CYCC,medium_airport,Cornwall Regional Airport,45.09280014,-74.56330109,175,NA,CA,CA-ON,Cornwall,no,CYCC,YCC,
CYCD,medium_airport,Nanaimo Airport,49.05497,-123.869863,92,NA,CA,CA-BC,Nanaimo,yes,CYCD,YCD,
CYCE,medium_airport,Centralia / James T. Field Memorial Aerodrome,43.285599,-81.508301,824,NA,CA,CA-ON,Centralia,no,CYCE,YCE,CYCE
CYCG,medium_airport,Castlegar/West Kootenay Regional Airport,49.29639816,-117.6320038,1624,NA,CA,CA-BC,Castlegar,yes,CYCG,YCG,
CYCH,medium_airport,Miramichi Airport,47.007801,-65.449203,108,NA,CA,CA-NB,Miramichi,yes,CYCH,YCH,
CYCK,small_airport,Chatham Kent Airport,42.3064003,-82.08190155,650,NA,CA,CA-ON,Chatham-Kent,no,CYCK,XCM,NZ3
CYCL,medium_airport,Charlo Airport,47.990799,-66.330299,132,NA,CA,CA-NB,Charlo,yes,CYCL,YCL,
CYCN,medium_airport,Cochrane Airport,49.10559845,-81.01360321,861,NA,CA,CA-ON,Cochrane,no,CYCN,YCN,
CYCO,medium_airport,Kugluktuk Airport,67.816704,-115.143997,74,NA,CA,CA-NU,Kugluktuk,yes,CYCO,YCO,
CYCQ,medium_airport,Chetwynd Airport,55.68719864,-121.6269989,2000,NA,CA,CA-BC,Chetwynd,no,CYCQ,YCQ,
CYCR,medium_airport,Cross Lake (Charlie Sinclair Memorial) Airport,54.61059952,-97.76080322,709,NA,CA,CA-MB,Cross Lake,no,CYCR,YCR,
CYCS,medium_airport,Chesterfield Inlet Airport,63.34690094,-90.73110199,32,NA,CA,CA-NU,Chesterfield Inlet,yes,CYCS,YCS,
CYCT,small_airport,Coronation Airport,52.07500076,-111.4449997,2595,NA,CA,CA-AB,Coronation,no,CYCT,YCT,
CYCW,small_airport,Chilliwack Airport,49.153157,-121.939309,32,NA,CA,CA-BC,Chilliwack,no,CYCW,YCW,
CYCY,medium_airport,Clyde River Airport,70.48609924,-68.51670074,87,NA,CA,CA-NU,Clyde River,yes,CYCY,YCY,
CYCZ,small_airport,Fairmont Hot Springs Airport,50.331052,-115.873739,2661,NA,CA,CA-BC,Fairmont Hot Springs,no,CYCZ,YCZ,
CYDA,medium_airport,Dawson City Airport,64.04309845,-139.128006,1215,NA,CA,CA-YT,Dawson City,yes,CYDA,YDA,
CYDB,medium_airport,Burwash Airport,61.37110138,-139.0410004,2647,NA,CA,CA-YT,Burwash,no,CYDB,YDB,
CYDF,medium_airport,Deer Lake Airport,49.21080017,-57.39139938,72,NA,CA,CA-NL,Deer Lake,yes,CYDF,YDF,
CYDL,small_airport,Dease Lake Airport,58.42219925,-130.0319977,2600,NA,CA,CA-BC,Dease Lake,no,CYDL,YDL,
CYDM,medium_airport,Ross River Airport,61.97060013,-132.4230042,2314,NA,CA,CA-YT,Ross River,no,CYDM,XRR,YDM
CYDN,medium_airport,Dauphin Barker Airport,51.10079956,-100.052002,999,NA,CA,CA-MB,Dauphin,yes,CYDN,YDN,
CYDO,medium_airport,Dolbeau St Felicien Airport,48.7784996,-72.375,372,NA,CA,CA-QC,Dolbeau-St-Félicien,no,CYDO,YDO,
CYDP,medium_airport,Nain Airport,56.54919815,-61.68030167,22,NA,CA,CA-NL,Nain,yes,CYDP,YDP,
CYDQ,medium_airport,Dawson Creek Airport,55.74229813,-120.1829987,2148,NA,CA,CA-BC,Dawson Creek,yes,CYDQ,YDQ,
CYEG,large_airport,Edmonton International Airport,53.30970001,-113.5800018,2373,NA,CA,CA-AB,Edmonton,yes,CYEG,YEG,CYEG
CYEK,medium_airport,Arviat Airport,61.09420013,-94.07080078,32,NA,CA,CA-NU,Arviat,yes,CYEK,YEK,
CYEL,medium_airport,Elliot Lake Municipal Airport,46.35139847,-82.56140137,1087,NA,CA,CA-ON,Elliot Lake,no,CYEL,YEL,
CYEM,medium_airport,Manitoulin East Municipal Airport,45.842435,-81.857595,869,NA,CA,CA-ON,Sheguiandah,no,CYEM,YEM,
CYEN,medium_airport,Estevan Airport,49.21030045,-102.9660034,1905,NA,CA,CA-SK,Estevan,no,CYEN,YEN,
CYER,medium_airport,Fort Severn Airport,56.01890182,-87.67610168,48,NA,CA,CA-ON,Fort Severn,yes,CYER,YER,
CYET,medium_airport,Edson Airport,53.57889938,-116.4649963,3043,NA,CA,CA-AB,Edson,no,CYET,YET,
CYEU,small_airport,Eureka Airport,79.99469757,-85.81420136,256,NA,CA,CA-NU,Eureka,no,CYEU,YEU,
CYEV,medium_airport,Inuvik Mike Zubko Airport,68.30419922,-133.4830017,224,NA,CA,CA-NT,Inuvik,yes,CYEV,YEV,
CYEY,medium_airport,Amos/Magny Airport,48.563903,-78.249702,1068,NA,CA,CA-QC,Amos,no,CYEY,YEY,
CYFA,medium_airport,Fort Albany Airport,52.20140076,-81.69689941,48,NA,CA,CA-ON,Fort Albany,yes,CYFA,YFA,
CYFB,medium_airport,Iqaluit Airport,63.756402,-68.555801,110,NA,CA,CA-NU,Iqaluit,yes,CYFB,YFB,
CYFC,medium_airport,Fredericton Airport,45.8689003,-66.53720093,68,NA,CA,CA-NB,Fredericton,yes,CYFC,YFC,
CYFE,medium_airport,Forestville Airport,48.74610138,-69.09719849,293,NA,CA,CA-QC,Forestville,no,CYFE,YFE,
CYFH,medium_airport,Fort Hope Airport,51.56190109,-87.90779877,899,NA,CA,CA-ON,Fort Hope,yes,CYFH,YFH,
CYFJ,medium_airport,Mont-Tremblant International Airport,46.409401,-74.779999,827,NA,CA,CA-QC,La Macaza,yes,CYFJ,YTM,
CYFO,medium_airport,Flin Flon Airport,54.67810059,-101.6819992,997,NA,CA,CA-MB,Flin Flon,yes,CYFO,YFO,
CYFR,medium_airport,Fort Resolution Airport,61.18080139,-113.6900024,526,NA,CA,CA-NT,Fort Resolution,no,CYFR,YFR,
CYFS,medium_airport,Fort Simpson Airport,61.7602005,-121.2369995,555,NA,CA,CA-NT,Fort Simpson,yes,CYFS,YFS,
CYFT,medium_airport,Makkovik Airport,55.07690048,-59.18640137,234,NA,CA,CA-NL,Makkovik,yes,CYFT,YMN,
CYGB,medium_airport,Texada Gillies Bay Airport,49.69419861,-124.5179977,326,NA,CA,CA-BC,Texada,yes,CYGB,YGB,
CYGH,medium_airport,Fort Good Hope Airport,66.24079895,-128.651001,268,NA,CA,CA-NT,Fort Good Hope,yes,CYGH,YGH,
CYGK,medium_airport,Kingston Norman Rogers Airport,44.22529984,-76.59690094,305,NA,CA,CA-ON,Kingston,yes,CYGK,YGK,
CYGL,medium_airport,La Grande Rivière Airport,53.62530136,-77.70420074,639,NA,CA,CA-QC,La Grande Rivière,yes,CYGL,YGL,
CYGM,medium_airport,Gimli Industrial Park Airport,50.62810135,-97.04329681,753,NA,CA,CA-MB,Gimli,no,CYGM,YGM,
CYGO,medium_airport,Gods Lake Narrows Airport,54.55889893,-94.49140167,617,NA,CA,CA-MB,Gods Lake Narrows,yes,CYGO,YGO,
CYGP,medium_airport,Gaspé (Michel-Pouliot) Airport,48.77529907,-64.47859955,112,NA,CA,CA-QC,Gaspé,yes,CYGP,YGP,
CYGQ,medium_airport,Geraldton Greenstone Regional Airport,49.77830124,-86.93939972,1144,NA,CA,CA-ON,Geraldton,no,CYGQ,YGQ,
CYGR,medium_airport,Îles-de-la-Madeleine Airport,47.42470169,-61.77809906,35,NA,CA,CA-QC,Îles-de-la-Madeleine,yes,CYGR,YGR,
CYGT,medium_airport,Igloolik Airport,69.36470032,-81.81610107,174,NA,CA,CA-NU,Igloolik,yes,CYGT,YGT,
CYGV,medium_airport,Havre-Saint-Pierre Airport,50.281898,-63.611401,124,NA,CA,CA-QC,Havre-Saint-Pierre,no,CYGV,YGV,
CYGW,medium_airport,Kuujjuarapik Airport,55.2818985,-77.76529694,34,NA,CA,CA-QC,Kuujjuarapik,yes,CYGW,YGW,
CYGX,medium_airport,Gillam Airport,56.35749817,-94.71060181,476,NA,CA,CA-MB,Gillam,yes,CYGX,YGX,
CYGZ,medium_airport,Grise Fiord Airport,76.42610168,-82.90920258,146,NA,CA,CA-NU,Grise Fiord,yes,CYGZ,YGZ,
CYHA,medium_airport,Quaqtaq Airport,61.04639816,-69.61779785,103,NA,CA,CA-QC,Quaqtaq,yes,CYHA,YQC,
CYHB,small_airport,Hudson Bay Airport,52.81669998,-102.310997,1175,NA,CA,CA-SK,Hudson Bay,no,CYHB,YHB,
CYHC,seaplane_base,Vancouver Harbour Water Aerodrome,49.291265,-123.11717,,NA,CA,CA-BC,Vancouver,yes,CYHC,CXH,
CYHD,medium_airport,Dryden Regional Airport,49.831699,-92.744202,1354,NA,CA,CA-ON,Dryden,yes,CYHD,YHD,
CYHE,medium_airport,Hope Airport,49.36830139,-121.4980011,128,NA,CA,CA-BC,Hope,no,CYHE,YHE,
CYHF,medium_airport,Hearst René Fontaine Municipal Airport,49.71419907,-83.68609619,827,NA,CA,CA-ON,Hearst,no,CYHF,YHF,
CYHH,medium_airport,Nemiscau Airport,51.69110107,-76.13559723,802,NA,CA,CA-QC,Nemiscau,yes,CYHH,YNS,
CYHI,medium_airport,Ulukhaktok Holman Airport,70.76280212,-117.8059998,117,NA,CA,CA-NT,Ulukhaktok,yes,CYHI,YHI,
CYHK,medium_airport,Gjoa Haven Airport,68.63559723,-95.84970093,152,NA,CA,CA-NU,Gjoa Haven,yes,CYHK,YHK,
CYHM,medium_airport,John C. Munro Hamilton International Airport,43.17359924,-79.93499756,780,NA,CA,CA-ON,Hamilton,yes,CYHM,YHM,
CYHN,medium_airport,Hornepayne Municipal Airport,49.19309998,-84.7589035,1099,NA,CA,CA-ON,Hornepayne,no,CYHN,YHN,
CYHO,medium_airport,Hopedale Airport,55.44829941,-60.22859955,39,NA,CA,CA-NL,Hopedale,yes,CYHO,YHO,
CYHR,medium_airport,Chevery Airport,50.46889877,-59.63669968,39,NA,CA,CA-QC,Chevery,yes,CYHR,YHR,
CYHT,medium_airport,Haines Junction Airport,60.78919983,-137.5460052,2150,NA,CA,CA-YT,Haines Junction,no,CYHT,YHT,
CYHU,medium_airport,Montreal / Saint-Hubert Airport,45.51750183,-73.41690063,90,NA,CA,CA-QC,Montreal,yes,CYHU,YHU,
CYHY,medium_airport,Hay River / Merlyn Carter Airport,60.83969879,-115.7829971,541,NA,CA,CA-NT,Hay River,yes,CYHY,YHY,
CYHZ,large_airport,Halifax / Stanfield International Airport,44.88079834,-63.50859833,477,NA,CA,CA-NS,Halifax,yes,CYHZ,YHZ,
CYIB,medium_airport,Atikokan Municipal Airport,48.77389908,-91.63860321,1408,NA,CA,CA-ON,Atikokan,no,CYIB,YIB,
CYID,medium_airport,Digby / Annapolis Regional Airport,44.54584504,-65.78542471,499,NA,CA,CA-NS,Digby,no,CYID,YDG,
CYIF,medium_airport,St Augustin Airport,51.21170044,-58.65829849,20,NA,CA,CA-QC,St-Augustin,no,CYIF,YIF,
CYIK,medium_airport,Ivujivik Airport,62.41730118,-77.9253006,126,NA,CA,CA-QC,Ivujivik,yes,CYIK,YIK,
CYIO,medium_airport,Pond Inlet Airport,72.6832962,-77.96669769,181,NA,CA,CA-NU,Pond Inlet,yes,CYIO,YIO,
CYIV,medium_airport,Island Lake Airport,53.85720062,-94.6536026,770,NA,CA,CA-MB,Island Lake,yes,CYIV,YIV,
CYJA,small_airport,Jasper Airport,52.996418,-118.060233,3350,NA,CA,CA-AB,Jasper,no,CYJA,YJA,
CYJF,medium_airport,Fort Liard Airport,60.2358017,-123.4690018,708,NA,CA,CA-NT,Fort Liard,no,CYJF,YJF,
CYJN,medium_airport,St Jean Airport,45.29439926,-73.28109741,136,NA,CA,CA-QC,St Jean,no,CYJN,YJN,
CYJT,medium_airport,Stephenville Airport,48.5442009,-58.54999924,84,NA,CA,CA-NL,Stephenville,yes,CYJT,YJT,
CYKA,medium_airport,Kamloops Airport,50.70220184,-120.4440002,1133,NA,CA,CA-BC,Kamloops,yes,CYKA,YKA,
CYKC,small_airport,Collins Bay Airport,58.23609924,-103.6780014,1341,NA,CA,CA-SK,Collins Bay,no,CYKC,YKC,
CYKD,medium_airport,Aklavik/Freddie Carmichael Airport,68.223297,-135.00599,23,NA,CA,CA-NT,Aklavik,yes,CYKD,LAK,
CYKF,medium_airport,Waterloo Airport,43.46080017,-80.37860107,1055,NA,CA,CA-ON,Kitchener,yes,CYKF,YKF,
CYKG,medium_airport,Kangiqsujuaq (Wakeham Bay) Airport,61.58860016,-71.92939758,501,NA,CA,CA-QC,Kangiqsujuaq,yes,CYKG,YWB,
CYKJ,medium_airport,Key Lake Airport,57.2560997,-105.6179962,1679,NA,CA,CA-SK,Key Lake,no,CYKJ,YKJ,
CYKL,medium_airport,Schefferville Airport,54.80530167,-66.80529785,1709,NA,CA,CA-QC,Schefferville,yes,CYKL,YKL,
CYKM,small_airport,Kincardine Municipal Airport,44.201401,-81.606697,772,NA,CA,CA-ON,Kincardine,no,CYKM,YKD,CYKM
CYKO,medium_airport,Akulivik Airport,60.8185997,-78.14859772,75,NA,CA,CA-QC,Akulivik,yes,CYKO,AKV,
CYKQ,medium_airport,Waskaganish Airport,51.47330093,-78.75830078,80,NA,CA,CA-QC,Waskaganish,yes,CYKQ,YKQ,
CYKX,medium_airport,Kirkland Lake Airport,48.21030045,-79.98139954,1157,NA,CA,CA-ON,Kirkland Lake,no,CYKX,YKX,
CYKY,medium_airport,Kindersley Airport,51.51750183,-109.1809998,2277,NA,CA,CA-SK,Kindersley,no,CYKY,YKY,YKY
CYKZ,medium_airport,Buttonville Municipal Airport,43.86220169,-79.37000275,650,NA,CA,CA-ON,Toronto,no,CYKZ,YKZ,
CYLA,medium_airport,Aupaluk Airport,59.29669952,-69.59970093,119,NA,CA,CA-QC,Aupaluk,yes,CYLA,YPJ,
CYLB,small_airport,Lac La Biche Airport,54.77030182,-112.0319977,1884,NA,CA,CA-AB,Lac La Biche,no,CYLB,YLB,
CYLC,medium_airport,Kimmirut Airport,62.84999847,-69.88330078,175,NA,CA,CA-NU,Kimmirut,yes,CYLC,YLC,
CYLD,medium_airport,Chapleau Airport,47.81999969,-83.34670258,1470,NA,CA,CA-ON,Chapleau,no,CYLD,YLD,
CYLH,medium_airport,Lansdowne House Airport,52.1955986,-87.93419647,834,NA,CA,CA-ON,Lansdowne House,yes,CYLH,YLH,
CYLJ,medium_airport,Meadow Lake Airport,54.12530136,-108.5230026,1576,NA,CA,CA-SK,Meadow Lake,no,CYLJ,YLJ,
CYLK,medium_airport,Lutselk'e Airport,62.418303,-110.681998,596,NA,CA,CA-NT,Lutselk'e,yes,CYLK,YSG,
CYLL,medium_airport,Lloydminster Airport,53.30920029,-110.072998,2193,NA,CA,CA-AB,Lloydminster,yes,CYLL,YLL,
CYLQ,small_airport,La Tuque Airport,47.40969849,-72.78890228,548,NA,CA,CA-QC,La Tuque,no,CYLQ,YLQ,
CYLR,medium_airport,Leaf Rapids Airport,56.51330185,-99.98529816,959,NA,CA,CA-MB,Leaf Rapids,no,CYLR,YLR,
CYLS,small_airport,Barrie-Orillia (Lake Simcoe Regional Airport),44.48529816,-79.55560303,972,NA,CA,CA-ON,Barrie-Orillia,no,CYLS,YLK,CYLS
CYLT,medium_airport,Alert Airport,82.51779938,-62.2806015,100,NA,CA,CA-NU,Alert,no,CYLT,YLT,
CYLU,medium_airport,Kangiqsualujjuaq (Georges River) Airport,58.71139908,-65.99279785,215,NA,CA,CA-QC,Kangiqsualujjuaq,yes,CYLU,XGR,
CYLW,medium_airport,Kelowna International Airport,49.9561,-119.377998,1421,NA,CA,CA-BC,Kelowna,yes,CYLW,YLW,
CYM,seaplane_base,Chatham Seaplane Base,57.5149,-134.945999,0,NA,US,US-AK,Chatham,no,05AA,CYM,05AA
CYMA,medium_airport,Mayo Airport,63.61640167,-135.8679962,1653,NA,CA,CA-YT,Mayo,no,CYMA,YMA,
CYME,medium_airport,Matane Airport,48.85689926,-67.45330048,102,NA,CA,CA-QC,Matane,no,CYME,YME,
CYMG,medium_airport,Manitouwadge Airport,49.08390045,-85.86060333,1198,NA,CA,CA-ON,Manitouwadge,no,CYMG,YMG,
CYMH,medium_airport,Mary's Harbour Airport,52.30279922,-55.84719849,38,NA,CA,CA-NL,Mary's Harbour,yes,CYMH,YMH,
CYMJ,medium_airport,Moose Jaw Air Vice Marshal C. M. McEwen Airport,50.33029938,-105.5589981,1892,NA,CA,CA-SK,Moose Jaw,no,CYMJ,YMJ,
CYML,medium_airport,Charlevoix Airport,47.59749985,-70.22389984,977,NA,CA,CA-QC,Charlevoix,no,CYML,YML,
CYMM,medium_airport,Fort McMurray Airport,56.65330124,-111.2220001,1211,NA,CA,CA-AB,Fort McMurray,yes,CYMM,YMM,
CYMO,medium_airport,Moosonee Airport,51.29109955,-80.60780334,30,NA,CA,CA-ON,Moosonee,yes,CYMO,YMO,
CYMT,medium_airport,Chapais Airport,49.77190018,-74.52809906,1270,NA,CA,CA-QC,Chibougamau,yes,CYMT,YMT,
CYMU,medium_airport,Umiujaq Airport,56.53609848,-76.51830292,250,NA,CA,CA-QC,Umiujaq,yes,CYMU,YUD,
CYMW,small_airport,Maniwaki Airport,46.2728,-75.990601,656,NA,CA,CA-QC,Maniwaki,no,CYMW,YMW,YMW
CYMX,medium_airport,Montreal International (Mirabel) Airport,45.679501,-74.038696,270,NA,CA,CA-QC,Montreal,no,CYMX,YMX,
CYNA,medium_airport,Natashquan Airport,50.18999863,-61.78919983,39,NA,CA,CA-QC,Natashquan,yes,CYNA,YNA,
CYNC,medium_airport,Wemindji Airport,53.01060104,-78.83110046,66,NA,CA,CA-QC,Wemindji,yes,CYNC,YNC,
CYND,medium_airport,Ottawa / Gatineau Airport,45.521702,-75.563599,211,NA,CA,CA-QC,Gatineau,yes,CYND,YND,CYND
CYNE,medium_airport,Norway House Airport,53.95830154,-97.84420013,734,NA,CA,CA-MB,Norway House,yes,CYNE,YNE,
CYNH,small_airport,Hudsons Hope Airport,56.03559875,-121.9759979,2220,NA,CA,CA-BC,Hudson's Hope,no,CYNH,YNH,
CYNJ,small_airport,Langley Airport,49.1008,-122.630997,34,NA,CA,CA-BC,Langley Twp,no,CYNJ,YLY,
CYNL,medium_airport,Points North Landing Airport,58.27669907,-104.0820007,1605,NA,CA,CA-SK,Points North Landing,yes,CYNL,YNL,
CYNM,medium_airport,Matagami Airport,49.76169968,-77.80280304,918,NA,CA,CA-QC,Matagami,no,CYNM,YNM,
CYNR,small_airport,Fort Mackay / Horizon Airport,57.38169861,-111.7009964,916,NA,CA,CA-AB,Fort Mackay,no,CYNR,HZP,CYNR
CYOA,medium_airport,Ekati Airport,64.69889832,-110.6149979,1536,NA,CA,CA-NT,Ekati,no,CYOA,YOA,
CYOC,medium_airport,Old Crow Airport,67.57060242,-139.8390045,824,NA,CA,CA-YT,Old Crow,yes,CYOC,YOC,
CYOD,medium_airport,CFB Cold Lake,54.40499878,-110.2789993,1775,NA,CA,CA-AB,Cold Lake,no,CYOD,YOD,
CYOH,medium_airport,Oxford House Airport,54.93330002,-95.27890015,663,NA,CA,CA-MB,Oxford House,yes,CYOH,YOH,
CYOJ,medium_airport,High Level Airport,58.62139893,-117.1650009,1110,NA,CA,CA-AB,High Level,yes,CYOJ,YOJ,
CYOO,medium_airport,Toronto/Oshawa Executive Airport,43.922798,-78.894997,460,NA,CA,CA-ON,Oshawa,no,CYOO,YOO,CYOO
CYOP,medium_airport,Rainbow Lake Airport,58.49140167,-119.4079971,1759,NA,CA,CA-AB,Rainbow Lake,yes,CYOP,YOP,
CYOS,medium_airport,Owen Sound / Billy Bishop Regional Airport,44.59030151,-80.83750153,1007,NA,CA,CA-ON,Owen Sound,no,CYOS,YOS,
CYOW,large_airport,Ottawa Macdonald-Cartier International Airport,45.32249832,-75.66919708,374,NA,CA,CA-ON,Ottawa,yes,CYOW,YOW,YOW
CYPA,medium_airport,Prince Albert Glass Field,53.21419907,-105.6729965,1405,NA,CA,CA-SK,Prince Albert,yes,CYPA,YPA,
CYPC,medium_airport,Paulatuk (Nora Aliqatchialuk Ruben) Airport,69.36083812,-124.07547,15,NA,CA,CA-NT,Paulatuk,yes,CYPC,YPC,
CYPD,medium_airport,Port Hawkesbury Airport,45.65670013,-61.36809921,377,NA,CA,CA-NS,Port Hawkesbury,no,CYPD,YPS,
CYPE,medium_airport,Peace River Airport,56.226898,-117.446999,1873,NA,CA,CA-AB,Peace River,yes,CYPE,YPE,
CYPG,medium_airport,Portage-la-Prairie / Southport Airport,49.903099,-98.273817,885,NA,CA,CA-MB,Portage la Prairie,no,CYPG,YPG,
CYPH,medium_airport,Inukjuak Airport,58.47190094,-78.07689667,83,NA,CA,CA-QC,Inukjuak,yes,CYPH,YPH,
CYPL,medium_airport,Pickle Lake Airport,51.44639969,-90.21420288,1267,NA,CA,CA-ON,Pickle Lake,yes,CYPL,YPL,
CYPM,medium_airport,Pikangikum Airport,51.81969833,-93.97329712,1114,NA,CA,CA-ON,Pikangikum,yes,CYPM,YPM,
CYPN,medium_airport,Port Menier Airport,49.83639908,-64.28859711,167,NA,CA,CA-QC,Port-Menier,no,CYPN,YPN,
CYPO,medium_airport,Peawanuck Airport,54.98809814,-85.44329834,173,NA,CA,CA-ON,Peawanuck,yes,CYPO,YPO,
CYPQ,medium_airport,Peterborough Airport,44.22999954,-78.36329651,628,NA,CA,CA-ON,Peterborough,no,CYPQ,YPQ,
CYPR,medium_airport,Prince Rupert Airport,54.28609848,-130.4450073,116,NA,CA,CA-BC,Prince Rupert,yes,CYPR,YPR,
CYPW,medium_airport,Powell River Airport,49.83420181,-124.5,425,NA,CA,CA-BC,Powell River,yes,CYPW,YPW,
CYPX,medium_airport,Puvirnituq Airport,60.05059814,-77.28690338,74,NA,CA,CA-QC,Puvirnituq,no,CYPX,YPX,
CYPY,medium_airport,Fort Chipewyan Airport,58.76720047,-111.1169968,761,NA,CA,CA-AB,Fort Chipewyan,yes,CYPY,YPY,
CYPZ,small_airport,Burns Lake Airport,54.37639999,-125.9509964,2343,NA,CA,CA-BC,Burns Lake,no,CYPZ,YPZ,YPZ
CYQA,medium_airport,Muskoka Airport,44.97470093,-79.30329895,925,NA,CA,CA-ON,Muskoka,no,CYQA,YQA,
CYQB,large_airport,Quebec Jean Lesage International Airport,46.7911,-71.393303,244,NA,CA,CA-QC,Quebec City,yes,CYQB,YQB,YQB
CYQD,medium_airport,The Pas Airport,53.97140121,-101.0910034,887,NA,CA,CA-MB,The Pas,yes,CYQD,YQD,
CYQF,medium_airport,Red Deer Regional Airport,52.182201,-113.893997,2968,NA,CA,CA-AB,Red Deer,no,CYQF,YQF,
CYQG,medium_airport,Windsor Airport,42.27560043,-82.95559692,622,NA,CA,CA-ON,Windsor,yes,CYQG,YQG,
CYQH,medium_airport,Watson Lake Airport,60.11640167,-128.8220062,2255,NA,CA,CA-YT,Watson Lake,no,CYQH,YQH,
CYQI,medium_airport,Yarmouth Airport,43.82690048,-66.08809662,141,NA,CA,CA-NS,Yarmouth,no,CYQI,YQI,
CYQK,medium_airport,Kenora Airport,49.78829956,-94.36309814,1332,NA,CA,CA-ON,Kenora,yes,CYQK,YQK,
CYQL,medium_airport,Lethbridge County Airport,49.63029861,-112.8000031,3048,NA,CA,CA-AB,Lethbridge,yes,CYQL,YQL,
CYQM,medium_airport,Greater Moncton Roméo LeBlanc International Airport,46.112202,-64.678596,232,NA,CA,CA-NB,Moncton,yes,CYQM,YQM,
CYQN,medium_airport,Nakina Airport,50.18280029,-86.6964035,1057,NA,CA,CA-ON,Nakina,yes,CYQN,YQN,
CYQQ,medium_airport,Comox Valley Airport / CFB Comox,49.7108,-124.887001,84,NA,CA,CA-BC,Comox,yes,CYQQ,YQQ,
CYQR,medium_airport,Regina International Airport,50.43190002,-104.6660004,1894,NA,CA,CA-SK,Regina,yes,CYQR,YQR,
CYQS,medium_airport,St Thomas Municipal Airport,42.77000046,-81.1108017,778,NA,CA,CA-ON,St Thomas,no,CYQS,YQS,
CYQT,medium_airport,Thunder Bay Airport,48.37189865,-89.32389832,653,NA,CA,CA-ON,Thunder Bay,yes,CYQT,YQT,
CYQU,medium_airport,Grande Prairie Airport,55.17969894,-118.8850021,2195,NA,CA,CA-AB,Grande Prairie,yes,CYQU,YQU,
CYQV,medium_airport,Yorkton Municipal Airport,51.26470184,-102.461998,1635,NA,CA,CA-SK,Yorkton,no,CYQV,YQV,
CYQW,medium_airport,North Battleford Airport,52.769409,-108.243742,1799,NA,CA,CA-SK,North Battleford,no,CYQW,YQW,
CYQX,medium_airport,Gander International Airport,48.93690109,-54.56809998,496,NA,CA,CA-NL,Gander,yes,CYQX,YQX,
CYQY,medium_airport,Sydney / J.A. Douglas McCurdy Airport,46.1614,-60.047798,203,NA,CA,CA-NS,Sydney,yes,CYQY,YQY,
CYQZ,medium_airport,Quesnel Airport,53.02610016,-122.5100021,1789,NA,CA,CA-BC,Quesnel,yes,CYQZ,YQZ,
CYRA,medium_airport,Rae Lakes Airport,64.1160965,-117.3099976,723,NA,CA,CA-NT,Gamètì,yes,CYRA,YRA,
CYRB,medium_airport,Resolute Bay Airport,74.71690369,-94.9693985,215,NA,CA,CA-NU,Resolute Bay,yes,CYRB,YRB,
CYRI,medium_airport,Rivière-du-Loup Airport,47.76440048,-69.58470154,427,NA,CA,CA-QC,Rivière-du-Loup,no,CYRI,YRI,
CYRJ,medium_airport,Roberval Airport,48.52000046,-72.26560211,586,NA,CA,CA-QC,Roberval,yes,CYRJ,YRJ,
CYRL,medium_airport,Red Lake Airport,51.06689835,-93.79309845,1265,NA,CA,CA-ON,Red Lake,yes,CYRL,YRL,
CYRM,small_airport,Rocky Mountain House Airport,52.42969894,-114.9039993,3244,NA,CA,CA-AB,Rocky Mountain House,no,CYRM,YRM,
CYRO,medium_airport,Ottawa / Rockcliffe Airport,45.46030045,-75.64610291,188,NA,CA,CA-ON,Ottawa,no,CYRO,YRO,CYRO
CYRQ,medium_airport,Trois-Rivières Airport,46.35279846,-72.67939758,199,NA,CA,CA-QC,Trois-Rivières,no,CYRQ,YRQ,
CYRS,medium_airport,Red Sucker Lake Airport,54.16719818,-93.55719757,729,NA,CA,CA-MB,Red Sucker Lake,no,CYRS,YRS,
CYRT,medium_airport,Rankin Inlet Airport,62.81140137,-92.11579895,94,NA,CA,CA-NU,Rankin Inlet,yes,CYRT,YRT,
CYRV,medium_airport,Revelstoke Airport,50.962245,-118.184258,1459,NA,CA,CA-BC,Revelstoke,no,CYRV,YRV,
CYSB,medium_airport,Sudbury Airport,46.625,-80.79889679,1141,NA,CA,CA-ON,Sudbury,yes,CYSB,YSB,
CYSC,medium_airport,Sherbrooke Airport,45.43859863,-71.69139862,792,NA,CA,CA-QC,Sherbrooke,no,CYSC,YSC,
CYSE,small_airport,Squamish Airport,49.78170013,-123.1620026,171,NA,CA,CA-BC,Squamish,no,CYSE,YSE,YSE
CYSF,medium_airport,Stony Rapids Airport,59.25030136,-105.8410034,805,NA,CA,CA-SK,Stony Rapids,yes,CYSF,YSF,
CYSH,medium_airport,Smiths Falls-Montague (Russ Beach) Airport,44.945801,-75.940598,416,NA,CA,CA-ON,Smiths Falls,no,CYSH,YSH,
CYSJ,medium_airport,Saint John Airport,45.31610107,-65.89029694,357,NA,CA,CA-NB,Saint John,yes,CYSJ,YSJ,
CYSK,medium_airport,Sanikiluaq Airport,56.53779984,-79.24669647,104,NA,CA,CA-NU,Sanikiluaq,yes,CYSK,YSK,
CYSL,medium_airport,St Leonard Airport,47.15750122,-67.83470154,793,NA,CA,CA-NB,St Leonard,no,CYSL,YSL,
CYSM,medium_airport,Fort Smith Airport,60.020302,-111.961998,671,NA,CA,CA-NT,Fort Smith,yes,CYSM,YSM,
CYSN,medium_airport,Niagara District Airport,43.19169998,-79.17169952,321,NA,CA,CA-ON,St Catharines,no,CYSN,YCM,
CYSP,medium_airport,Marathon Airport,48.75529861,-86.3443985,1035,NA,CA,CA-ON,Marathon,no,CYSP,YSP,
CYST,medium_airport,St. Theresa Point Airport,53.84560013,-94.85189819,773,NA,CA,CA-MB,St. Theresa Point,yes,CYST,YST,
CYSU,medium_airport,Summerside Airport,46.440601,-63.833599,56,NA,CA,CA-PE,Slemon Park,no,CYSU,YSU,
CYSY,medium_airport,Sachs Harbour (David Nasogaluak Jr. Saaryuaq) Airport,71.99389648,-125.2429962,282,NA,CA,CA-NT,Sachs Harbour,yes,CYSY,YSY,
CYTA,medium_airport,Pembroke Airport,45.86439896,-77.25170135,529,NA,CA,CA-ON,Pembroke,no,CYTA,YTA,
CYTE,medium_airport,Cape Dorset Airport,64.230003,-76.526703,164,NA,CA,CA-NU,Kinngait,yes,CYTE,YTE,
CYTF,medium_airport,Alma Airport,48.50889969,-71.64189911,445,NA,CA,CA-QC,Alma,yes,CYTF,YTF,
CYTH,medium_airport,Thompson Airport,55.80110168,-97.86419678,729,NA,CA,CA-MB,Thompson,yes,CYTH,YTH,
CYTL,medium_airport,Big Trout Lake Airport,53.81779861,-89.89689636,729,NA,CA,CA-ON,Big Trout Lake,yes,CYTL,YTL,
CYTQ,medium_airport,Tasiujaq Airport,58.6678009,-69.95580292,122,NA,CA,CA-QC,Tasiujaq,no,CYTQ,YTQ,
CYTR,medium_airport,CFB Trenton,44.1189003,-77.52809906,283,NA,CA,CA-ON,Trenton,no,CYTR,YTR,
CYTS,medium_airport,Timmins/Victor M. Power,48.56969833,-81.37670136,967,NA,CA,CA-ON,Timmins,yes,CYTS,YTS,
CYTZ,medium_airport,Billy Bishop Toronto City Centre Airport,43.627499,-79.396202,252,NA,CA,CA-ON,Toronto,yes,CYTZ,YTZ,
CYUB,medium_airport,Tuktoyaktuk / James Gruben Airport,69.433296,-133.026001,15,NA,CA,CA-NT,Tuktoyaktuk,yes,CYUB,YUB,
CYUL,large_airport,Montreal / Pierre Elliott Trudeau International Airport,45.47060013,-73.74079895,118,NA,CA,CA-QC,Montreal,yes,CYUL,YUL,YUL
CYUT,medium_airport,Naujaat Airport,66.5214,-86.224701,80,NA,CA,CA-NU,Repulse Bay,yes,CYUT,YUT,
CYUX,medium_airport,Hall Beach Airport,68.7761,-81.2425,30,NA,CA,CA-NU,Sanirajak,yes,CYUX,YUX,
CYUY,medium_airport,Rouyn Noranda Airport,48.20610046,-78.83560181,988,NA,CA,CA-QC,Rouyn-Noranda,yes,CYUY,YUY,
CYVB,medium_airport,Bonaventure Airport,48.07109833,-65.46029663,123,NA,CA,CA-QC,Bonaventure,no,CYVB,YVB,
CYVC,medium_airport,La Ronge Airport,55.15140152,-105.262001,1242,NA,CA,CA-SK,La Ronge,yes,CYVC,YVC,
CYVG,small_airport,Vermilion Airport,53.35580063,-110.8239975,2025,NA,CA,CA-AB,Vermilion,no,CYVG,YVG,YVG
CYVK,medium_airport,Vernon Airport,50.24810028,-119.3310013,1140,NA,CA,CA-BC,Vernon,no,CYVK,YVE,
CYVL,small_airport,Tommy Kochon Airport,67.02,-126.126,870,NA,CA,CA-NT,Colville Lake,yes,CYVL,YCK,
CYVM,medium_airport,Qikiqtarjuaq Airport,67.54579926,-64.03140259,21,NA,CA,CA-NU,Qikiqtarjuaq,yes,CYVM,YVM,
CYVO,medium_airport,Val-d'Or Airport,48.05329895,-77.78279877,1107,NA,CA,CA-QC,Val-d'Or,yes,CYVO,YVO,
CYVP,medium_airport,Kuujjuaq Airport,58.09609985,-68.42690277,129,NA,CA,CA-QC,Kuujjuaq,yes,CYVP,YVP,
CYVQ,medium_airport,Norman Wells Airport,65.28160095,-126.7979965,238,NA,CA,CA-NT,Norman Wells,yes,CYVQ,YVQ,
CYVR,large_airport,Vancouver International Airport,49.19390106,-123.1839981,14,NA,CA,CA-BC,Vancouver,yes,CYVR,YVR,
CYVT,small_airport,Buffalo Narrows Airport,55.84189987,-108.4179993,1423,NA,CA,CA-SK,Buffalo Narrows,no,CYVT,YVT,
CYVV,medium_airport,Wiarton Airport,44.7458,-81.107201,729,NA,CA,CA-ON,Wiarton,no,CYVV,YVV,
CYVZ,medium_airport,Deer Lake Airport,52.65579987,-94.06140137,1092,NA,CA,CA-ON,Deer Lake,yes,CYVZ,YVZ,
CYWA,medium_airport,Petawawa Airport,45.95220184,-77.31919861,427,NA,CA,CA-ON,Petawawa,no,CYWA,YWA,
CYWG,large_airport,Winnipeg / James Armstrong Richardson International Airport,49.90999985,-97.23989868,783,NA,CA,CA-MB,Winnipeg,yes,CYWG,YWG,YWG
CYWH,seaplane_base,Victoria Harbour Seaplane Base,48.423782,-123.37198,,NA,CA,CA-BC,Victoria,yes,CYWH,YWH,
CYWJ,medium_airport,Déline Airport,65.21109772,-123.435997,703,NA,CA,CA-NT,Déline,yes,CYWJ,YWJ,
CYWK,medium_airport,Wabush Airport,52.9219017,-66.86440277,1808,NA,CA,CA-NL,Wabush,yes,CYWK,YWK,
CYWL,medium_airport,Williams Lake Airport,52.18310165,-122.0540009,3085,NA,CA,CA-BC,Williams Lake,yes,CYWL,YWL,
CYWP,medium_airport,Webequie Airport,52.9593934,-87.37486839,685,NA,CA,CA-ON,Webequie,yes,CYWP,YWP,
CYWY,medium_airport,Wrigley Airport,63.20940018,-123.4369965,489,NA,CA,CA-NT,Wrigley,no,CYWY,YWY,
CYXC,medium_airport,Cranbrook/Canadian Rockies International Airport,49.6108017,-115.7819977,3082,NA,CA,CA-BC,Cranbrook,yes,CYXC,YXC,
CYXE,medium_airport,Saskatoon John G. Diefenbaker International Airport,52.17079926,-106.6999969,1653,NA,CA,CA-SK,Saskatoon,yes,CYXE,YXE,
CYXH,medium_airport,Medicine Hat Airport,50.01890182,-110.7210007,2352,NA,CA,CA-AB,Medicine Hat,yes,CYXH,YXH,
CYXJ,medium_airport,Fort St John Airport,56.238098,-120.739998,2280,NA,CA,CA-BC,Fort St.John,yes,CYXJ,YXJ,
CYXK,medium_airport,Rimouski Airport,48.47809982,-68.49690247,82,NA,CA,CA-QC,Rimouski,no,CYXK,YXK,
CYXL,medium_airport,Sioux Lookout Airport,50.11389923,-91.90529633,1258,NA,CA,CA-ON,Sioux Lookout,yes,CYXL,YXL,
CYXN,medium_airport,Whale Cove Airport,62.24000168,-92.59809875,40,NA,CA,CA-NU,Whale Cove,yes,CYXN,YXN,
CYXP,medium_airport,Pangnirtung Airport,66.14499664,-65.71360016,75,NA,CA,CA-NU,Pangnirtung,yes,CYXP,YXP,
CYXQ,medium_airport,Beaver Creek Airport,62.41030121,-140.8670044,2131,NA,CA,CA-YT,Beaver Creek,no,CYXQ,YXQ,
CYXR,medium_airport,Earlton (Timiskaming Regional) Airport,47.69740065,-79.84734535,800,NA,CA,CA-ON,Earlton,no,CYXR,YXR,
CYXS,medium_airport,Prince George Airport,53.88940048,-122.6790009,2267,NA,CA,CA-BC,Prince George,yes,CYXS,YXS,
CYXT,medium_airport,Northwest Regional Airport Terrace-Kitimat,54.468498,-128.576009,713,NA,CA,CA-BC,Terrace,yes,CYXT,YXT,
CYXU,medium_airport,London Airport,43.035599,-81.1539,912,NA,CA,CA-ON,London,yes,CYXU,YXU,
CYXX,medium_airport,Abbotsford International Airport,49.025299,-122.361,195,NA,CA,CA-BC,Abbotsford,yes,CYXX,YXX,
CYXY,medium_airport,Whitehorse / Erik Nielsen International Airport,60.709599,-135.067001,2317,NA,CA,CA-YT,Whitehorse,yes,CYXY,YXY,
CYXZ,medium_airport,Wawa Airport,47.96670151,-84.78669739,942,NA,CA,CA-ON,Wawa,no,CYXZ,YXZ,
CYYB,medium_airport,North Bay Jack Garland Airport,46.363602,-79.422798,1215,NA,CA,CA-ON,North Bay,yes,CYYB,YYB,
CYYC,large_airport,Calgary International Airport,51.11389923,-114.0199966,3557,NA,CA,CA-AB,Calgary,yes,CYYC,YYC,
CYYD,medium_airport,Smithers Airport,54.8246994,-127.1829987,1712,NA,CA,CA-BC,Smithers,yes,CYYD,YYD,
CYYE,medium_airport,Fort Nelson Airport,58.83639908,-122.5970001,1253,NA,CA,CA-BC,Fort Nelson,yes,CYYE,YYE,
CYYF,medium_airport,Penticton Airport,49.46310043,-119.6019974,1129,NA,CA,CA-BC,Penticton,yes,CYYF,YYF,
CYYG,medium_airport,Charlottetown Airport,46.29000092,-63.12110138,160,NA,CA,CA-PE,Charlottetown,yes,CYYG,YYG,
CYYH,medium_airport,Taloyoak Airport,69.5467,-93.576698,92,NA,CA,CA-NU,Taloyoak,yes,CYYH,YYH,
CYYJ,medium_airport,Victoria International Airport,48.6469,-123.426003,63,NA,CA,CA-BC,Victoria,yes,CYYJ,YYJ,
CYYL,medium_airport,Lynn Lake Airport,56.86389923,-101.0759964,1170,NA,CA,CA-MB,Lynn Lake,yes,CYYL,YYL,
CYYM,small_airport,Cowley Airport,49.63639832,-114.0940018,3876,NA,CA,CA-AB,Cowley,no,CYYM,YYM,YYM
CYYN,medium_airport,Swift Current Airport,50.29190063,-107.6910019,2680,NA,CA,CA-SK,Swift Current,no,CYYN,YYN,
CYYQ,medium_airport,Churchill Airport,58.73920059,-94.06500244,94,NA,CA,CA-MB,Churchill,yes,CYYQ,YYQ,
CYYR,medium_airport,Goose Bay Airport,53.31919861,-60.42580032,160,NA,CA,CA-NL,Goose Bay,yes,CYYR,YYR,
CYYT,large_airport,St. John's International Airport,47.61859894,-52.75189972,461,NA,CA,CA-NL,St. John's,yes,CYYT,YYT,
CYYU,medium_airport,Kapuskasing Airport,49.41389847,-82.46749878,743,NA,CA,CA-ON,Kapuskasing,yes,CYYU,YYU,
CYYW,medium_airport,Armstrong Airport,50.29029846,-88.90969849,1058,NA,CA,CA-ON,Armstrong,no,CYYW,YYW,
CYYY,medium_airport,Mont Joli Airport,48.60860062,-68.20809937,172,NA,CA,CA-QC,Mont-Joli,yes,CYYY,YYY,
CYYZ,large_airport,Lester B. Pearson International Airport,43.67720032,-79.63059998,569,NA,CA,CA-ON,Toronto,yes,CYYZ,YYZ,YYZ
CYZE,medium_airport,Gore Bay Manitoulin Airport,45.8853,-82.567802,623,NA,CA,CA-ON,Gore Bay,no,CYZE,YZE,
CYZF,medium_airport,Yellowknife International Airport,62.462799,-114.440002,675,NA,CA,CA-NT,Yellowknife,yes,CYZF,YZF,
CYZG,medium_airport,Salluit Airport,62.1794014,-75.66719818,743,NA,CA,CA-QC,Salluit,yes,CYZG,YZG,
CYZH,medium_airport,Slave Lake Airport,55.29309845,-114.7770004,1912,NA,CA,CA-AB,Slave Lake,no,CYZH,YZH,
CYZP,medium_airport,Sandspit Airport,53.25429916,-131.8139954,21,NA,CA,CA-BC,Sandspit,yes,CYZP,YZP,
CYZR,medium_airport,Chris Hadfield Airport,42.99940109,-82.30889893,594,NA,CA,CA-ON,Sarnia,yes,CYZR,YZR,
CYZS,medium_airport,Coral Harbour Airport,64.19329834,-83.35939789,210,NA,CA,CA-NU,Coral Harbour,yes,CYZS,YZS,
CYZT,medium_airport,Port Hardy Airport,50.68059921,-127.3669968,71,NA,CA,CA-BC,Port Hardy,yes,CYZT,YZT,
CYZU,medium_airport,Whitecourt Airport,54.14390182,-115.7870026,2567,NA,CA,CA-AB,Whitecourt,no,CYZU,YZU,
CYZV,medium_airport,Sept-Îles Airport,50.22330093,-66.26560211,180,NA,CA,CA-QC,Sept-Îles,yes,CYZV,YZV,
CYZW,medium_airport,Teslin Airport,60.17279816,-132.7429962,2313,NA,CA,CA-YT,Teslin,no,CYZW,YZW,
CYZX,medium_airport,CFB Greenwood,44.9844017,-64.91690063,92,NA,CA,CA-NS,Greenwood,no,CYZX,YZX,
CZAC,medium_airport,York Landing Airport,56.08940125,-96.08920288,621,NA,CA,CA-MB,York Landing,yes,CZAC,ZAC,
CZAM,medium_airport,Shuswap Regional Airport,50.682802,-119.228996,1751,NA,CA,CA-BC,Salmon Arm,no,CZAM,YSN,
CZBB,medium_airport,Boundary Bay Airport,49.0742,-123.012001,6,NA,CA,CA-BC,Vancouver,no,CZBB,YDT,
CZBD,medium_airport,Ilford Airport,56.05163,-95.620523,642,NA,CA,CA-MB,Ilford,yes,CZBD,ILF,
CZBF,medium_airport,Bathurst Airport,47.62969971,-65.73889923,193,NA,CA,CA-NB,Bathurst,yes,CZBF,ZBF,
CZBM,medium_airport,Bromont (Roland Désourdy) Airport,45.290798,-72.741402,375,NA,CA,CA-QC,Bromont,no,CZBM,ZBM,
CZEE,medium_airport,Kelsey Airport,56.03749847,-96.50969696,600,NA,CA,CA-MB,Kelsey,no,CZEE,KES,ZEE
CZEM,medium_airport,Eastmain River Airport,52.22639847,-78.52249908,24,NA,CA,CA-QC,Eastmain River,yes,CZEM,ZEM,
CZFA,medium_airport,Faro Airport,62.20750046,-133.3760071,2351,NA,CA,CA-YT,Faro,no,CZFA,ZFA,
CZFD,medium_airport,Fond-Du-Lac Airport,59.33440018,-107.1819992,814,NA,CA,CA-SK,Fond-Du-Lac,yes,CZFD,ZFD,
CZFG,medium_airport,Pukatawagan Airport,55.74919891,-101.2659988,958,NA,CA,CA-MB,Pukatawagan,no,CZFG,XPK,ZFG
CZFM,medium_airport,Fort Mcpherson Airport,67.40750122,-134.8609924,116,NA,CA,CA-NT,Fort Mcpherson,yes,CZFM,ZFM,
CZFN,medium_airport,Tulita Airport,64.909697,-125.572998,332,NA,CA,CA-NT,Tulita,yes,CZFN,ZFN,
CZGF,medium_airport,Grand Forks Airport,49.015598,-118.431,1720,NA,CA,CA-BC,Grand Forks,no,CZGF,ZGF,
CZGI,medium_airport,Gods River Airport,54.83969879,-94.07859802,627,NA,CA,CA-MB,Gods River,yes,CZGI,ZGI,
CZGR,medium_airport,Little Grand Rapids Airport,52.04560089,-95.46579742,1005,NA,CA,CA-MB,Little Grand Rapids,no,CZGR,ZGR,
CZHP,small_airport,High Prairie Airport,55.39360046,-116.4749985,1974,NA,CA,CA-AB,High Prairie,no,CZHP,ZHP,
CZJ,small_airport,Corazón de Jesús Airport,9.4446,-78.5888,8,NA,PA,PA-KY,Corazón de Jesús and Narganá Islands,yes,,CZJ,
CZJG,medium_airport,Jenpeg Airport,54.51890182,-98.0460968,729,NA,CA,CA-MB,Jenpeg,no,CZJG,ZJG,
CZJN,medium_airport,Swan River Airport,52.120602,-101.236,1100,NA,CA,CA-MB,Swan River,no,CZJN,ZJN,
CZK,small_airport,Cascade Locks State Airport,45.676599,-121.878879,151,NA,US,US-OR,Cascade Locks,no,KCZK,CZK,CZK
CZKE,medium_airport,Kashechewan Airport,52.28250122,-81.67780304,35,NA,CA,CA-ON,Kashechewan,yes,CZKE,ZKE,
CZLQ,medium_airport,Thicket Portage Airport,55.31890106,-97.70780182,678,NA,CA,CA-MB,Thicket Portage,no,CZLQ,YTD,
CZMD,medium_airport,Muskrat Dam Airport,53.44139862,-91.76280212,911,NA,CA,CA-ON,Muskrat Dam,yes,CZMD,MSA,
CZML,small_airport,South Cariboo Region / 108 Mile Airport,51.73609924,-121.3330002,3126,NA,CA,CA-BC,108 Mile,no,CZML,ZMH,
CZMN,medium_airport,Pikwitonei Airport,55.58890152,-97.16419983,630,NA,CA,CA-MB,Pikwitonei,no,CZMN,PIW,
CZMT,medium_airport,Masset Airport,54.02750015,-132.125,25,NA,CA,CA-BC,Masset,yes,CZMT,ZMT,
CZN,small_airport,Chisana Airport,62.07120132,-142.0480042,3318,NA,US,US-AK,Chisana,yes,CZN,CZN,CZN
CZNG,medium_airport,Poplar River Airport,52.99652588,-97.27419376,728,NA,CA,CA-MB,Poplar River,no,CZNG,XPP,
CZO,small_airport,Chistochina Airport,62.56349945,-144.6690063,1850,NA,US,US-AK,Chistochina,no,CZO,CZO,CZO
CZPB,medium_airport,Sachigo Lake Airport,53.89110184,-92.1964035,876,NA,CA,CA-ON,Sachigo Lake,yes,CZPB,ZPB,
CZPC,medium_airport,Pincher Creek Airport,49.52059937,-113.9970016,3903,NA,CA,CA-AB,Pincher Creek,no,CZPC,WPC,
CZPO,small_airport,Pinehouse Lake Airport,55.52809906,-106.5820007,1278,NA,CA,CA-SK,Pinehouse Lake,no,CZPO,ZPO,
CZRJ,medium_airport,Round Lake (Weagamow Lake) Airport,52.9435997,-91.31279755,974,NA,CA,CA-ON,Round Lake,yes,CZRJ,ZRJ,
CZSJ,medium_airport,Sandy Lake Airport,53.06420135,-93.3443985,951,NA,CA,CA-ON,Sandy Lake,yes,CZSJ,ZSJ,
CZSN,medium_airport,South Indian Lake Airport,56.7928009,-98.90720367,951,NA,CA,CA-MB,South Indian Lake,no,CZSN,XSI,ZSN
CZST,medium_airport,Stewart Airport,55.93541045,-129.9824345,24,NA,CA,CA-BC,Stewart,no,CZST,ZST,CZST
CZSW,seaplane_base,Prince Rupert/Seal Cove Seaplane Base,54.33330154,-130.2830048,,NA,CA,CA-BC,,no,CZSW,ZSW,
CZTA,small_airport,Bloodvein River Airport,51.784568,-96.692305,721,NA,CA,CA-MB,Bloodvein River,no,CZTA,YDV,ZTA
CZTM,medium_airport,Shamattawa Airport,55.86560059,-92.08139801,289,NA,CA,CA-MB,Shamattawa,yes,CZTM,ZTM,
CZUC,medium_airport,Ignace Municipal Airport,49.428204,-91.720418,1435,NA,CA,CA-ON,Ignace,no,CZUC,ZUC,
CZUM,small_airport,Churchill Falls Airport,53.56190109,-64.10639954,1442,NA,CA,CA-NL,Churchill Falls,yes,CZUM,ZUM,
